[{"name":"Heretsried","lon":"10.7357508","lat":"48.4597888","population":1036,"id":0},{"name":"Wilmshausen","lon":"8.6613432","lat":"49.6954443","population":680,"id":1},{"name":"Schönberg","lon":"8.6478186","lat":"49.6931615","population":720,"id":2},{"name":"Bensheim","lon":"8.6227577","lat":"49.6810158","population":39642,"id":3},{"name":"Wendlingen am Neckar","lon":"9.3838404","lat":"48.6727602","population":15554,"id":4},{"name":"Esslingen am Neckar","lon":"9.3071685","lat":"48.7427584","population":92261,"id":5},{"name":"Plochingen","lon":"9.4184961","lat":"48.711173","population":13689,"id":6},{"name":"Hausbruch","lon":"9.8855407","lat":"53.4716208","population":17009,"id":7},{"name":"Neugraben-Fischbek","lon":"9.8426482","lat":"53.4739581","population":27160,"id":8},{"name":"Moorburg","lon":"9.9374768","lat":"53.4878001","population":725,"id":9},{"name":"Stellingen","lon":"9.9284099","lat":"53.5967771","population":23818,"id":10},{"name":"Palingen","lon":"10.797525","lat":"53.854454","population":400,"id":11},{"name":"Cuxhaven","lon":"8.698286","lat":"53.86878","population":48325,"id":12},{"name":"Hemmoor","lon":"9.1595122","lat":"53.6886857","population":8714,"id":13},{"name":"Zell","lon":"8.6442677","lat":"49.6751508","population":1000,"id":14},{"name":"Schannenbach","lon":"8.7216153","lat":"49.6895585","population":133,"id":15},{"name":"Wilhelmsburg","lon":"9.9962167","lat":"53.4922921","population":52372,"id":16},{"name":"Greffern","lon":"8.0056049","lat":"48.7521656","population":1943,"id":17},{"name":"Schwarzach","lon":"8.0460292","lat":"48.7470818","population":1672,"id":18},{"name":"Hildmannsfeld","lon":"8.0591485","lat":"48.7337992","population":260,"id":19},{"name":"Stollhofen","lon":"8.0480008","lat":"48.7650016","population":1492,"id":20},{"name":"Neuenfelde","lon":"9.8079161","lat":"53.5182412","population":4481,"id":21},{"name":"Schwanheim","lon":"8.5666814","lat":"49.6982312","population":1087,"id":22},{"name":"Zeven","lon":"9.280382","lat":"53.299291","population":12133,"id":23},{"name":"Gößweinstein","lon":"11.3369898","lat":"49.7694317","population":4082,"id":24},{"name":"Erlangen","lon":"11.0056","lat":"49.5928616","population":117466,"id":25},{"name":"Durlach","lon":"8.4701015","lat":"48.9992613","population":30000,"id":26},{"name":"Ettlingen","lon":"8.40427","lat":"48.9397149","population":38819,"id":27},{"name":"Rerik","lon":"11.6171165","lat":"54.1067652","population":2153,"id":28},{"name":"Grauelsbaum","lon":"7.9825142","lat":"48.7357885","population":600,"id":29},{"name":"Heimstetten","lon":"11.7556391","lat":"48.1601576","population":6000,"id":30},{"name":"Kirchheim bei München","lon":"11.756219","lat":"48.175748","population":7000,"id":31},{"name":"Winterhude","lon":"10.0038317","lat":"53.5963901","population":51549,"id":32},{"name":"Rotherbaum","lon":"9.9874317","lat":"53.5684065","population":16200,"id":33},{"name":"Barmbek-Nord","lon":"10.0480997","lat":"53.5988941","population":39890,"id":34},{"name":"Hildesheim","lon":"9.9513046","lat":"52.1521636","population":101744,"id":35},{"name":"Banteln","lon":"9.7508776","lat":"52.0682191","population":1499,"id":36},{"name":"Eime","lon":"9.7232316","lat":"52.0746587","population":2636,"id":37},{"name":"Dingden","lon":"6.6134154","lat":"51.7702601","population":7090,"id":38},{"name":"Bocholt","lon":"6.6148669","lat":"51.8382715","population":70856,"id":39},{"name":"Söllingen","lon":"8.0585501","lat":"48.7773366","population":1370,"id":40},{"name":"Sasbach","lon":"8.0924882","lat":"48.6390302","population":5275,"id":41},{"name":"Ottersweier","lon":"8.1120879","lat":"48.667086","population":6057,"id":42},{"name":"Chemnitz","lon":"12.9252977","lat":"50.8322608","population":243089,"id":43},{"name":"Dresden","lon":"13.7381437","lat":"51.0493286","population":557098,"id":44},{"name":"Hamburg","lon":"10.000654","lat":"53.550341","population":1812709,"id":45},{"name":"Markt Schwaben","lon":"11.867376","lat":"48.1914326","population":12703,"id":46},{"name":"Köln","lon":"6.959974","lat":"50.938361","population":1069200,"id":47},{"name":"Botnang","lon":"9.1295324","lat":"48.778495","population":12685,"id":48},{"name":"Sonnenberg","lon":"9.1525726","lat":"48.7415827","population":3708,"id":49},{"name":"Bühlertal","lon":"8.1872676","lat":"48.6868867","population":7863,"id":50},{"name":"Bremen","lon":"8.8071646","lat":"53.0758196","population":551415,"id":51},{"name":"Elm","lon":"9.2047887","lat":"53.5159135","population":1498,"id":52},{"name":"Lamstedt","lon":"9.1012645","lat":"53.634996","population":3319,"id":53},{"name":"Hechthausen","lon":"9.2352937","lat":"53.6423175","population":3445,"id":54},{"name":"Bremervörde","lon":"9.1362085","lat":"53.4850249","population":18701,"id":55},{"name":"Drochtersen","lon":"9.3854026","lat":"53.7095145","population":5470,"id":56},{"name":"Geretsried","lon":"11.479351","lat":"47.8646925","population":24892,"id":57},{"name":"Adelzhausen","lon":"11.1386677","lat":"48.3579139","population":1634,"id":58},{"name":"Herne","lon":"7.219985","lat":"51.5380394","population":156449,"id":59},{"name":"Steilshoop","lon":"10.058728","lat":"53.6106843","population":19448,"id":60},{"name":"Hemhofen","lon":"10.9380094","lat":"49.6842046","population":5191,"id":61},{"name":"Lünen","lon":"7.5228088","lat":"51.6142482","population":90800,"id":62},{"name":"Suhl","lon":"10.6926437","lat":"50.6086518","population":37300,"id":63},{"name":"Kleinostheim","lon":"9.0655061","lat":"50.0038042","population":8000,"id":64},{"name":"Karlshorst","lon":"13.5235848","lat":"52.4843399","population":24292,"id":65},{"name":"Königs Wusterhausen","lon":"13.6244389","lat":"52.2994511","population":38111,"id":66},{"name":"Eichwalde","lon":"13.6219208","lat":"52.373076","population":6452,"id":67},{"name":"Blossin","lon":"13.7997006","lat":"52.2557967","population":212,"id":68},{"name":"Oyten","lon":"9.0188655","lat":"53.0594513","population":15413,"id":69},{"name":"Alpirsbach","lon":"8.4033079","lat":"48.3456021","population":6310,"id":70},{"name":"Buxtehude","lon":"9.7003941","lat":"53.4767351","population":40122,"id":71},{"name":"Geisenfeld","lon":"11.6124731","lat":"48.683404","population":9704,"id":72},{"name":"Ernsgaden","lon":"11.5729832","lat":"48.7314316","population":1601,"id":73},{"name":"Bad Reichenhall","lon":"12.8760923","lat":"47.7222676","population":17513,"id":74},{"name":"Berchtesgaden","lon":"13.0021634","lat":"47.63108","population":7741,"id":75},{"name":"Schönau am Königssee","lon":"12.9846526","lat":"47.6054955","population":5418,"id":76},{"name":"Furth im Wald","lon":"12.8452826","lat":"49.3081639","population":8953,"id":77},{"name":"Bad Hindelang","lon":"10.3699251","lat":"47.5062921","population":4899,"id":78},{"name":"Kasendorf","lon":"11.3500213","lat":"50.0351634","population":2504,"id":79},{"name":"Bayreuth","lon":"11.5763079","lat":"49.9427202","population":72295,"id":80},{"name":"Stadtsteinach","lon":"11.5055461","lat":"50.1616746","population":2561,"id":81},{"name":"Hollfeld","lon":"11.2918916","lat":"49.9389862","population":5180,"id":82},{"name":"Leipzig","lon":"12.3747329","lat":"51.3406321","population":596517,"id":83},{"name":"Lichtenfels","lon":"11.06382","lat":"50.14568","population":20169,"id":84},{"name":"Rugendorf","lon":"11.4619333","lat":"50.2001141","population":1027,"id":85},{"name":"Wonsees","lon":"11.2980709","lat":"49.9758417","population":1180,"id":86},{"name":"Richelbach","lon":"9.3985114","lat":"49.6893618","population":570,"id":87},{"name":"Hirschaid","lon":"10.9895721","lat":"49.815393","population":12586,"id":88},{"name":"Forchheim","lon":"11.0595749","lat":"49.7187319","population":32907,"id":89},{"name":"Lahausen","lon":"8.837635","lat":"52.9731224","population":3885,"id":90},{"name":"Schwerin","lon":"11.4148038","lat":"53.6288297","population":95740,"id":91},{"name":"Teterow","lon":"12.5753569","lat":"53.7709505","population":8671,"id":92},{"name":"Neukalen","lon":"12.7918145","lat":"53.8228766","population":1974,"id":93},{"name":"Mittenwald","lon":"11.2655684","lat":"47.4429543","population":7926,"id":94},{"name":"Eckersdorf","lon":"11.4987688","lat":"49.9344858","population":5096,"id":95},{"name":"Finkenwerder","lon":"9.8585234","lat":"53.5308822","population":11657,"id":96},{"name":"Drangstedt","lon":"8.7530238","lat":"53.6156419","population":1451,"id":97},{"name":"Geestenseth","lon":"8.8619071","lat":"53.5091906","population":965,"id":98},{"name":"Ringstedt","lon":"8.8466466","lat":"53.5612077","population":878,"id":99},{"name":"Zwötzen","lon":"12.0886178","lat":"50.8516264","population":4900,"id":100},{"name":"Lusan","lon":"12.0624222","lat":"50.8460265","population":23000,"id":101},{"name":"Helmbrechts","lon":"11.7163126","lat":"50.2349797","population":9470,"id":102},{"name":"Zinna","lon":"12.9559905","lat":"51.5687423","population":1587,"id":103},{"name":"Cambs","lon":"11.5282334","lat":"53.6965163","population":727,"id":104},{"name":"Brüel","lon":"11.7158035","lat":"53.7344671","population":3169,"id":105},{"name":"Remplin","lon":"12.693837","lat":"53.7524926","population":903,"id":106},{"name":"Stralsund","lon":"13.0820846","lat":"54.3096314","population":57301,"id":107},{"name":"Kiel","lon":"10.135555","lat":"54.3227085","population":246306,"id":108},{"name":"Wahlstedt","lon":"10.2121481","lat":"53.9528957","population":9391,"id":109},{"name":"Rickling","lon":"10.1675903","lat":"54.0057238","population":3386,"id":110},{"name":"Etzenrot","lon":"8.4664085","lat":"48.9106109","population":1800,"id":111},{"name":"Spielberg","lon":"8.4702015","lat":"48.8963768","population":2800,"id":112},{"name":"Veitlahm","lon":"11.3890505","lat":"50.1193039","population":314,"id":113},{"name":"Mainleus","lon":"11.3761976","lat":"50.0992499","population":6865,"id":114},{"name":"Pölz","lon":"11.3830124","lat":"50.0925266","population":74,"id":115},{"name":"Busenbach","lon":"8.4542655","lat":"48.9305661","population":5400,"id":116},{"name":"Struvenhütten","lon":"10.0540445","lat":"53.8641461","population":1107,"id":117},{"name":"Hasenmoor","lon":"9.9809431","lat":"53.8997732","population":706,"id":118},{"name":"Todesfelde","lon":"10.1810062","lat":"53.894853","population":1021,"id":119},{"name":"Kattendorf","lon":"10.0231175","lat":"53.8434999","population":923,"id":120},{"name":"Neumünster","lon":"9.9815377","lat":"54.0757442","population":79197,"id":121},{"name":"Stuvenborn","lon":"10.1251893","lat":"53.8514614","population":901,"id":122},{"name":"Ilvesheim","lon":"8.5673003","lat":"49.4735917","population":7664,"id":123},{"name":"Unterhaching","lon":"11.6102245","lat":"48.0662249","population":23217,"id":124},{"name":"Herzebrock-Clarholz","lon":"8.2249038","lat":"51.8993207","population":17032,"id":125},{"name":"Dortmund","lon":"7.4652789","lat":"51.5142273","population":600933,"id":126},{"name":"Kemmern","lon":"10.8736501","lat":"49.9533976","population":2577,"id":127},{"name":"Weißig","lon":"13.6118402","lat":"51.0016398","population":864,"id":128},{"name":"Kesselsdorf","lon":"13.5942849","lat":"51.0322245","population":3407,"id":129},{"name":"Lübeck","lon":"10.684738","lat":"53.866444","population":212958,"id":130},{"name":"Niendorf/Ostsee","lon":"10.8237764","lat":"53.9933747","population":2391,"id":131},{"name":"Travemünde","lon":"10.8759851","lat":"53.9626895","population":11000,"id":132},{"name":"Gerolsbach","lon":"11.3618955","lat":"48.4937435","population":3349,"id":133},{"name":"Jetzendorf","lon":"11.4186595","lat":"48.4332797","population":2902,"id":134},{"name":"Gießen","lon":"8.6742306","lat":"50.5862066","population":77733,"id":135},{"name":"Pesterwitz","lon":"13.6539668","lat":"51.0281105","population":3000,"id":136},{"name":"Eggenfelden","lon":"12.7626208","lat":"48.4031909","population":13090,"id":137},{"name":"Klein Gladebrügge","lon":"10.3203899","lat":"53.9163332","population":588,"id":138},{"name":"Himmelkron","lon":"11.5975741","lat":"50.0627988","population":3475,"id":139},{"name":"Trebgast","lon":"11.5515384","lat":"50.0679558","population":1713,"id":140},{"name":"Farchant","lon":"11.1127989","lat":"47.5306769","population":3767,"id":141},{"name":"Wolfratshausen","lon":"11.4266377","lat":"47.9104632","population":17464,"id":142},{"name":"Groß Rönnau","lon":"10.3124237","lat":"53.9729457","population":582,"id":143},{"name":"Klein Rönnau","lon":"10.3218919","lat":"53.9627134","population":1427,"id":144},{"name":"Zweibrücken","lon":"7.3641981","lat":"49.248655","population":34084,"id":145},{"name":"Ramstein-Miesenbach","lon":"7.5543118","lat":"49.4518819","population":8107,"id":146},{"name":"Kirchdorf an der Amper","lon":"11.6536536","lat":"48.4587564","population":2621,"id":147},{"name":"Hofheim am Taunus","lon":"8.447324","lat":"50.086546","population":38556,"id":148},{"name":"Schlangen","lon":"8.8447903","lat":"51.8097549","population":8770,"id":149},{"name":"Neuburg an der Donau","lon":"11.1795268","lat":"48.7371951","population":28184,"id":150},{"name":"Putzbrunn","lon":"11.7156265","lat":"48.0753076","population":5787,"id":151},{"name":"Kükels","lon":"10.2353676","lat":"53.8967897","population":435,"id":152},{"name":"Barnten","lon":"9.8183598","lat":"52.2015976","population":968,"id":153},{"name":"Dahl","lon":"8.8519864","lat":"51.6956818","population":2739,"id":154},{"name":"Gremsdorf","lon":"10.8346661","lat":"49.6961588","population":1501,"id":155},{"name":"Höchstadt an der Aisch","lon":"10.8077534","lat":"49.7046173","population":13158,"id":156},{"name":"Lonnerstadt","lon":"10.7660971","lat":"49.6991489","population":1967,"id":157},{"name":"Kleinsendelbach","lon":"11.1592415","lat":"49.5939893","population":1556,"id":158},{"name":"Neunkirchen am Brand","lon":"11.1300058","lat":"49.6126495","population":8520,"id":159},{"name":"Hetzles","lon":"11.1288637","lat":"49.6372301","population":1302,"id":160},{"name":"Breitengüßbach","lon":"10.8848831","lat":"49.971513","population":4671,"id":161},{"name":"Rathsberg","lon":"11.0253544","lat":"49.6170259","population":500,"id":162},{"name":"Dormitz","lon":"11.1210915","lat":"49.5960879","population":2011,"id":163},{"name":"Würzburg","lon":"9.932966","lat":"49.79245","population":124700,"id":164},{"name":"Zell am Main","lon":"9.8717161","lat":"49.8090598","population":4162,"id":165},{"name":"Veitshöchheim","lon":"9.8820664","lat":"49.8294358","population":9736,"id":166},{"name":"Gemünden am Main","lon":"9.6910162","lat":"50.0557181","population":10290,"id":167},{"name":"Frammersbach","lon":"9.4706391","lat":"50.0638687","population":4500,"id":168},{"name":"Rössing","lon":"9.8135353","lat":"52.1832233","population":1707,"id":169},{"name":"Strehla","lon":"13.2209664","lat":"51.3521221","population":4342,"id":170},{"name":"Riesa","lon":"13.308828","lat":"51.3038241","population":31760,"id":171},{"name":"Moers","lon":"6.62843","lat":"51.451283","population":105102,"id":172},{"name":"Dörfleins","lon":"10.86006","lat":"49.9310802","population":1400,"id":173},{"name":"Wernsdorf","lon":"11.0077074","lat":"49.8593815","population":480,"id":174},{"name":"Seigendorf","lon":"11.0263023","lat":"49.8241998","population":775,"id":175},{"name":"Thüngersheim","lon":"9.8439935","lat":"49.8804709","population":2762,"id":176},{"name":"Oberpframmern","lon":"11.8136285","lat":"48.0220272","population":2135,"id":177},{"name":"Schwarzenbruck","lon":"11.2396099","lat":"49.3561174","population":8397,"id":178},{"name":"Leimersheim","lon":"8.3461793","lat":"49.123748","population":2610,"id":179},{"name":"Jockgrim","lon":"8.276964","lat":"49.0950751","population":7538,"id":180},{"name":"Rheinzabern","lon":"8.2755944","lat":"49.1185093","population":4755,"id":181},{"name":"Rülzheim","lon":"8.2911891","lat":"49.1539607","population":7819,"id":182},{"name":"Aufseß","lon":"11.2275665","lat":"49.8841962","population":1371,"id":183},{"name":"Weismain","lon":"11.2400354","lat":"50.0850003","population":4845,"id":184},{"name":"Heeslingen","lon":"9.3374117","lat":"53.3165879","population":4733,"id":185},{"name":"Schmannewitz","lon":"12.9864364","lat":"51.3980357","population":634,"id":186},{"name":"Wermsdorf","lon":"12.9389605","lat":"51.2800216","population":6136,"id":187},{"name":"Habenhausen","lon":"8.8530759","lat":"53.0457398","population":8002,"id":188},{"name":"Arsten","lon":"8.842906","lat":"53.030323","population":9396,"id":189},{"name":"Mutzschen","lon":"12.8908646","lat":"51.260158","population":2272,"id":190},{"name":"Kupferberg","lon":"11.5766311","lat":"50.1391777","population":1035,"id":191},{"name":"Wirsberg","lon":"11.6051297","lat":"50.1070536","population":1995,"id":192},{"name":"Markkleeberg","lon":"12.3718819","lat":"51.2785751","population":23940,"id":193},{"name":"Seelze","lon":"9.594287","lat":"52.3964639","population":32397,"id":194},{"name":"Sarstedt","lon":"9.8534254","lat":"52.2340379","population":18237,"id":195},{"name":"Mockrehna","lon":"12.8148294","lat":"51.5070183","population":1315,"id":196},{"name":"Doberschütz","lon":"12.7425749","lat":"51.4987388","population":4411,"id":197},{"name":"Eilenburg","lon":"12.6344389","lat":"51.4586736","population":17950,"id":198},{"name":"Jesewitz","lon":"12.5645728","lat":"51.4224434","population":3141,"id":199},{"name":"Klosterlangheim","lon":"11.1120696","lat":"50.111664","population":380,"id":200},{"name":"Mörlenbach","lon":"8.7354401","lat":"49.5982679","population":9963,"id":201},{"name":"Hebertshausen","lon":"11.4695694","lat":"48.2896469","population":5052,"id":202},{"name":"Spiekeroog","lon":"7.6946627","lat":"53.7710589","population":746,"id":203},{"name":"Langeoog","lon":"7.481842","lat":"53.7462909","population":1986,"id":204},{"name":"Baltrum","lon":"7.3813665","lat":"53.7287123","population":554,"id":205},{"name":"Juist","lon":"6.9956079","lat":"53.6784483","population":1857,"id":206},{"name":"Lauenbrück","lon":"9.5563333","lat":"53.2019324","population":1979,"id":207},{"name":"Borkum","lon":"6.6682175","lat":"53.5902946","population":5559,"id":208},{"name":"Marzling","lon":"11.7949562","lat":"48.4093851","population":2980,"id":209},{"name":"Coburg","lon":"10.964463","lat":"50.258112","population":41405,"id":210},{"name":"Bad Düben","lon":"12.5856428","lat":"51.5911653","population":8000,"id":211},{"name":"Lindenhayn","lon":"12.4977551","lat":"51.5164865","population":267,"id":212},{"name":"Krostitz","lon":"12.4486969","lat":"51.462961","population":4084,"id":213},{"name":"Pröttitz","lon":"12.4327518","lat":"51.4562503","population":55,"id":214},{"name":"Hohenossig","lon":"12.418329","lat":"51.4454553","population":252,"id":215},{"name":"Langensendelbach","lon":"11.0705889","lat":"49.6408889","population":2840,"id":216},{"name":"Hörgertshausen","lon":"11.8662597","lat":"48.5482659","population":1904,"id":217},{"name":"Jesenwang","lon":"11.133622","lat":"48.1673595","population":1514,"id":218},{"name":"Landsberied","lon":"11.1705596","lat":"48.163385","population":1406,"id":219},{"name":"Attenkirchen","lon":"11.7601946","lat":"48.5057366","population":2562,"id":220},{"name":"Rudelzhausen","lon":"11.7680309","lat":"48.5900798","population":3175,"id":221},{"name":"Weisendorf","lon":"10.826895","lat":"49.6232447","population":6175,"id":222},{"name":"Gleidingen","lon":"9.8397516","lat":"52.2746747","population":4360,"id":223},{"name":"Eggenstein-Leopoldshafen","lon":"8.4003114","lat":"49.088332","population":15243,"id":224},{"name":"Wald-Michelbach","lon":"8.8229151","lat":"49.573415","population":10425,"id":225},{"name":"Bad Berneck","lon":"11.6678287","lat":"50.0428901","population":3047,"id":226},{"name":"Sonthofen","lon":"10.281931","lat":"47.5135363","population":14000,"id":227},{"name":"Murrhardt","lon":"9.5794661","lat":"48.9797657","population":13577,"id":228},{"name":"Uelzen","lon":"10.5584863","lat":"52.9666845","population":33338,"id":229},{"name":"Massenhausen","lon":"11.6381168","lat":"48.3480923","population":1000,"id":230},{"name":"Bonn","lon":"7.10066","lat":"50.735851","population":330224,"id":231},{"name":"Hallbergmoos","lon":"11.7445128","lat":"48.3182064","population":8363,"id":232},{"name":"Nandlstadt","lon":"11.8043442","lat":"48.5370361","population":5033,"id":233},{"name":"S┼éubice","lon":"14.5662367","lat":"52.3557481","population":16908,"id":234},{"name":"Gammelsdorf","lon":"11.9471187","lat":"48.5541355","population":1532,"id":235},{"name":"Innerstädtischer Bereich Nord","lon":"12.2486455","lat":"51.8434387","population":10080,"id":236},{"name":"Haideburg","lon":"12.2454911","lat":"51.7902046","population":1200,"id":237},{"name":"Süd","lon":"12.2415442","lat":"51.8055783","population":6199,"id":238},{"name":"Kleinviecht","lon":"11.827855","lat":"48.4360045","population":52,"id":239},{"name":"Großenviecht","lon":"11.8183355","lat":"48.4313259","population":93,"id":240},{"name":"Hohenkammer","lon":"11.5229952","lat":"48.4238467","population":2304,"id":241},{"name":"Paunzhausen","lon":"11.5650146","lat":"48.4734938","population":1528,"id":242},{"name":"Schweitenkirchen","lon":"11.6048142","lat":"48.5039411","population":5000,"id":243},{"name":"Calw","lon":"8.7452043","lat":"48.7112108","population":22374,"id":244},{"name":"Bad Liebenzell","lon":"8.7321279","lat":"48.7712716","population":8996,"id":245},{"name":"Freising","lon":"11.7439565","lat":"48.4008273","population":45857,"id":246},{"name":"Zeitlofs","lon":"9.6727136","lat":"50.2611034","population":2232,"id":247},{"name":"Hangenham","lon":"11.8334118","lat":"48.4116837","population":173,"id":248},{"name":"Schmidhausen","lon":"11.8304698","lat":"48.4235449","population":59,"id":249},{"name":"Zorneding","lon":"11.8276735","lat":"48.0848806","population":8528,"id":250},{"name":"Süpplingenburg","lon":"10.9132265","lat":"52.2500924","population":719,"id":251},{"name":"Königslutter am Elm","lon":"10.8171691","lat":"52.2499307","population":15666,"id":252},{"name":"Ochsendorf","lon":"10.8159231","lat":"52.3067981","population":450,"id":253},{"name":"Abbenrode","lon":"10.7258257","lat":"52.2503903","population":496,"id":254},{"name":"Oftlfing","lon":"11.81019","lat":"48.4398222","population":29,"id":255},{"name":"Bad Brückenau","lon":"9.7892824","lat":"50.3101036","population":6400,"id":256},{"name":"Wildflecken","lon":"9.9084296","lat":"50.3768644","population":3257,"id":257},{"name":"Kappel","lon":"10.6132722","lat":"49.8242093","population":65,"id":258},{"name":"Burgwindheim","lon":"10.595952","lat":"49.8285462","population":1311,"id":259},{"name":"Kötsch","lon":"10.6342718","lat":"49.8231709","population":101,"id":260},{"name":"Mönchsambach","lon":"10.6779549","lat":"49.8179438","population":100,"id":261},{"name":"Dürrhof","lon":"10.6978714","lat":"49.821145","population":70,"id":262},{"name":"Schatzenhof","lon":"10.7107742","lat":"49.8255176","population":15,"id":263},{"name":"Waldersee","lon":"12.2795475","lat":"51.8421199","population":2453,"id":264},{"name":"Unterneuses","lon":"10.7786186","lat":"49.8252652","population":240,"id":265},{"name":"Küstersgreuth","lon":"10.780621","lat":"49.7995668","population":35,"id":266},{"name":"Steppach","lon":"10.8049418","lat":"49.7743051","population":922,"id":267},{"name":"Pietenfeld","lon":"11.2401566","lat":"48.8606793","population":940,"id":268},{"name":"Bad Honnef","lon":"7.2272534","lat":"50.6448582","population":24845,"id":269},{"name":"Rheinbach","lon":"6.9491436","lat":"50.6256808","population":26790,"id":270},{"name":"Kattenturm","lon":"8.8228605","lat":"53.0401501","population":5027,"id":271},{"name":"Kattenesch","lon":"8.822896","lat":"53.027164","population":13029,"id":272},{"name":"Huckelriede","lon":"8.8161025","lat":"53.0544908","population":6912,"id":273},{"name":"Obervieland","lon":"8.837961","lat":"53.03885","population":35464,"id":274},{"name":"Neuenland","lon":"8.7829449","lat":"53.0596837","population":1407,"id":275},{"name":"Hohentor","lon":"8.785749","lat":"53.0706","population":4564,"id":276},{"name":"Buntentor","lon":"8.8047922","lat":"53.064397","population":6755,"id":277},{"name":"Gartenstadt Süd","lon":"8.796244","lat":"53.06005","population":4803,"id":278},{"name":"Südervorstadt","lon":"8.793877","lat":"53.064705","population":5336,"id":279},{"name":"Neustadt","lon":"8.7928381","lat":"53.0695355","population":43241,"id":280},{"name":"Alte Neustadt","lon":"8.799462","lat":"53.0733087","population":6145,"id":281},{"name":"Altstadt","lon":"8.8038542","lat":"53.0778062","population":3403,"id":282},{"name":"Bahnhofsvorstadt","lon":"8.8123566","lat":"53.0822643","population":5273,"id":283},{"name":"Ostertor","lon":"8.8193722","lat":"53.0738466","population":8460,"id":284},{"name":"Steintor","lon":"8.828268","lat":"53.07143","population":7509,"id":285},{"name":"Pleinfeld","lon":"10.9847038","lat":"49.1054193","population":7405,"id":286},{"name":"Schwabach","lon":"11.0195132","lat":"49.3295535","population":40428,"id":287},{"name":"Heilbronn","lon":"9.218655","lat":"49.142291","population":118122,"id":288},{"name":"Killisfeld","lon":"8.440672","lat":"48.9931274","population":431,"id":289},{"name":"Malter","lon":"13.6603457","lat":"50.9199287","population":729,"id":290},{"name":"Paulsdorf","lon":"13.6450675","lat":"50.9164842","population":698,"id":291},{"name":"Seifersdorf","lon":"13.6392405","lat":"50.9337129","population":1015,"id":292},{"name":"Schneverdingen","lon":"9.7925898","lat":"53.1165973","population":18723,"id":293},{"name":"Kauschwitz","lon":"12.0932318","lat":"50.5239904","population":769,"id":294},{"name":"Baad","lon":"11.1328485","lat":"49.6206195","population":81,"id":295},{"name":"Wettstetten","lon":"11.414012","lat":"48.8236836","population":4682,"id":296},{"name":"Etting","lon":"11.4050381","lat":"48.8058133","population":4417,"id":297},{"name":"Epe","lon":"7.0395017","lat":"52.1799123","population":15000,"id":298},{"name":"Kaarst","lon":"6.6193924","lat":"51.226675","population":42001,"id":299},{"name":"Egloffstein","lon":"11.2580389","lat":"49.7022098","population":2052,"id":300},{"name":"Königswinter","lon":"7.1930989","lat":"50.6739719","population":39976,"id":301},{"name":"Oederan","lon":"13.1694372","lat":"50.8614612","population":8258,"id":302},{"name":"Werne","lon":"7.6355052","lat":"51.66268","population":29448,"id":303},{"name":"Bergen auf Rügen","lon":"13.4305634","lat":"54.4172673","population":14328,"id":304},{"name":"Samtens","lon":"13.2928842","lat":"54.3548328","population":2209,"id":305},{"name":"Richtenberg","lon":"12.8857023","lat":"54.2007307","population":1319,"id":306},{"name":"Mildensee","lon":"12.2896004","lat":"51.8245824","population":1952,"id":307},{"name":"Weiler bei Bingen","lon":"7.866523","lat":"49.9563321","population":2514,"id":308},{"name":"Waldalgesheim","lon":"7.8347034","lat":"49.9514745","population":4015,"id":309},{"name":"Waldlaubersheim","lon":"7.833602","lat":"49.9285787","population":791,"id":310},{"name":"Windesheim","lon":"7.8152861","lat":"49.9056379","population":1776,"id":311},{"name":"Guldental","lon":"7.8423424","lat":"49.8905214","population":2509,"id":312},{"name":"Winzenheim","lon":"7.8660661","lat":"49.8707576","population":4300,"id":313},{"name":"Bad Kreuznach","lon":"7.8657658","lat":"49.8431642","population":52385,"id":314},{"name":"Hargesheim","lon":"7.82671","lat":"49.8628901","population":2857,"id":315},{"name":"Münster-Sarmsheim","lon":"7.8928797","lat":"49.9433503","population":2929,"id":316},{"name":"Clausthal-Zellerfeld","lon":"10.3364483","lat":"51.8070405","population":15413,"id":317},{"name":"Berghausen","lon":"8.5287483","lat":"49.0035346","population":7326,"id":318},{"name":"Beutelsdorf","lon":"10.8952847","lat":"49.5921291","population":294,"id":319},{"name":"Appenweier","lon":"7.9802666","lat":"48.5387171","population":9798,"id":320},{"name":"Großenseebach","lon":"10.8774157","lat":"49.631558","population":2405,"id":321},{"name":"Wallhausen","lon":"7.7684146","lat":"49.8882785","population":1563,"id":322},{"name":"Hergenfeld","lon":"7.7628872","lat":"49.9045421","population":509,"id":323},{"name":"Neuses an der Regnitz","lon":"11.0300348","lat":"49.7725424","population":660,"id":324},{"name":"Eggolsheim","lon":"11.0535303","lat":"49.7721617","population":6352,"id":325},{"name":"Unterstürmig","lon":"11.0477304","lat":"49.7868307","population":420,"id":326},{"name":"Buttenheim","lon":"11.0287518","lat":"49.8027526","population":3277,"id":327},{"name":"Eimeldingen","lon":"7.595491","lat":"47.6321888","population":2424,"id":328},{"name":"Niederhummel","lon":"11.8820224","lat":"48.4331329","population":606,"id":329},{"name":"Nieska","lon":"13.3601058","lat":"51.4274294","population":250,"id":330},{"name":"Kröbeln","lon":"13.3682892","lat":"51.4440647","population":466,"id":331},{"name":"Zeithain","lon":"13.3382965","lat":"51.3323702","population":5891,"id":332},{"name":"Bad Liebenwerda","lon":"13.39272","lat":"51.5158115","population":9486,"id":333},{"name":"Zschorna","lon":"12.8053739","lat":"51.3897098","population":270,"id":334},{"name":"Wurzen","lon":"12.7410574","lat":"51.3709574","population":16327,"id":335},{"name":"Seßlach","lon":"10.8436513","lat":"50.1871223","population":4082,"id":336},{"name":"Aschau im Chiemgau","lon":"12.3234179","lat":"47.7764994","population":5575,"id":337},{"name":"Krausnick","lon":"13.8336781","lat":"52.0338295","population":413,"id":338},{"name":"Schlepzig - Slopi┼íčça","lon":"13.8914786","lat":"52.0292762","population":659,"id":339},{"name":"Estenfeld","lon":"10.0081286","lat":"49.8286521","population":4872,"id":340},{"name":"Hallerndorf","lon":"10.9790956","lat":"49.7595157","population":3933,"id":341},{"name":"Schweinbach","lon":"10.8659251","lat":"49.7674909","population":133,"id":342},{"name":"Wind","lon":"10.8483819","lat":"49.7770116","population":62,"id":343},{"name":"Sambach","lon":"10.8422095","lat":"49.7807144","population":590,"id":344},{"name":"Oberndorf","lon":"10.8248144","lat":"49.7783883","population":89,"id":345},{"name":"Stolzenroth","lon":"10.7952622","lat":"49.7632033","population":58,"id":346},{"name":"Wiesensteig","lon":"9.6271372","lat":"48.5622723","population":2291,"id":347},{"name":"Celle","lon":"10.081052","lat":"52.624056","population":69748,"id":348},{"name":"Biebelried","lon":"10.0803057","lat":"49.7647295","population":1177,"id":349},{"name":"Klingenmünster","lon":"8.0187576","lat":"49.1395457","population":2372,"id":350},{"name":"Randersacker","lon":"9.9803941","lat":"49.760046","population":3430,"id":351},{"name":"Altenbach","lon":"12.6817097","lat":"51.3548779","population":938,"id":352},{"name":"Waldsteinberg","lon":"12.5935695","lat":"51.3153538","population":912,"id":353},{"name":"Altenau","lon":"13.2672796","lat":"51.4194027","population":200,"id":354},{"name":"Bröhsen","lon":"12.7961723","lat":"51.2290503","population":159,"id":355},{"name":"Grechwitz","lon":"12.7751904","lat":"51.2293622","population":325,"id":356},{"name":"Neunitz","lon":"12.7579731","lat":"51.2290693","population":221,"id":357},{"name":"Grimma","lon":"12.7287511","lat":"51.2383379","population":15000,"id":358},{"name":"Seelingstädt","lon":"12.7131445","lat":"51.273338","population":649,"id":359},{"name":"Sollnitz","lon":"12.3139309","lat":"51.7681686","population":191,"id":360},{"name":"Kühren","lon":"12.8424425","lat":"51.3420486","population":662,"id":361},{"name":"Schwaikheim","lon":"9.3517336","lat":"48.8748352","population":9490,"id":362},{"name":"Essen","lon":"7.0158171","lat":"51.4582235","population":569884,"id":363},{"name":"Erkelenz","lon":"6.3160684","lat":"51.080992","population":42792,"id":364},{"name":"Durmersheim","lon":"8.2704865","lat":"48.9328266","population":11954,"id":365},{"name":"Ötigheim","lon":"8.2383062","lat":"48.8894679","population":4334,"id":366},{"name":"Kandern","lon":"7.6610865","lat":"47.714697","population":4000,"id":367},{"name":"Lörrach","lon":"7.6607218","lat":"47.6120896","population":48307,"id":368},{"name":"Hösbach","lon":"9.200966","lat":"50.0049158","population":13359,"id":369},{"name":"Sulzbach am Main","lon":"9.1529545","lat":"49.9102501","population":7125,"id":370},{"name":"Mainaschaff","lon":"9.0857089","lat":"49.981916","population":8330,"id":371},{"name":"Pausitz","lon":"12.737312","lat":"51.3245474","population":393,"id":372},{"name":"Bach","lon":"12.7370572","lat":"51.3163211","population":99,"id":373},{"name":"Rothersdorf","lon":"12.739817","lat":"51.3070021","population":49,"id":374},{"name":"Großbothen","lon":"12.7496662","lat":"51.187791","population":3724,"id":375},{"name":"Leisenau","lon":"12.7619022","lat":"51.1681758","population":211,"id":376},{"name":"Schönbach","lon":"12.75988","lat":"51.1506319","population":550,"id":377},{"name":"Colditz","lon":"12.8065842","lat":"51.1295496","population":8828,"id":378},{"name":"Wegberg","lon":"6.2776865","lat":"51.1423588","population":27713,"id":379},{"name":"Bitburg","lon":"6.524947","lat":"49.9732762","population":15228,"id":380},{"name":"Erbendorf","lon":"12.0481655","lat":"49.837847","population":5369,"id":381},{"name":"Garmisch-Partenkirchen","lon":"11.0962815","lat":"47.4923741","population":26102,"id":382},{"name":"Westerland","lon":"8.3071734","lat":"54.9064856","population":9078,"id":383},{"name":"Haltingen","lon":"7.6163573","lat":"47.6152532","population":8000,"id":384},{"name":"Weil am Rhein","lon":"7.6116133","lat":"47.5932802","population":30000,"id":385},{"name":"Efringen-Kirchen","lon":"7.565174","lat":"47.6556421","population":8349,"id":386},{"name":"Öschelbronn","lon":"9.4614261","lat":"48.8864514","population":370,"id":387},{"name":"Stöckenhof","lon":"9.4563307","lat":"48.8905634","population":125,"id":388},{"name":"Rettersburg","lon":"9.4713479","lat":"48.8726249","population":470,"id":389},{"name":"Oppelsbohm","lon":"9.4687336","lat":"48.8608214","population":1200,"id":390},{"name":"Bretzenacker","lon":"9.4540772","lat":"48.8566692","population":300,"id":391},{"name":"Erlenhof","lon":"9.4534819","lat":"48.8475285","population":130,"id":392},{"name":"Steinach","lon":"9.4531051","lat":"48.8431011","population":830,"id":393},{"name":"Reichenbach","lon":"9.4432373","lat":"48.8406958","population":220,"id":394},{"name":"Füssen","lon":"10.6977089","lat":"47.5709212","population":14139,"id":395},{"name":"Nesselwang","lon":"10.5003482","lat":"47.6218885","population":3527,"id":396},{"name":"Neuharlingersiel","lon":"7.7035695","lat":"53.6992698","population":1084,"id":397},{"name":"Bad Salzuflen","lon":"8.7554739","lat":"52.0771518","population":30000,"id":398},{"name":"Lemgo","lon":"8.9012894","lat":"52.0280674","population":40717,"id":399},{"name":"Ditzingen","lon":"9.0658446","lat":"48.8263983","population":24272,"id":400},{"name":"Frankfurt am Main","lon":"8.6820917","lat":"50.1106444","population":701350,"id":401},{"name":"Laichingen","lon":"9.6861474","lat":"48.4896773","population":10968,"id":402},{"name":"Hayingen","lon":"9.476729","lat":"48.2752638","population":2141,"id":403},{"name":"Detmold","lon":"8.8791526","lat":"51.936284","population":73449,"id":404},{"name":"Weingarten","lon":"8.5245089","lat":"49.0532906","population":10392,"id":405},{"name":"Hohn","lon":"6.9484101","lat":"50.6818634","population":50,"id":406},{"name":"Ratingen","lon":"6.8493503","lat":"51.2973261","population":93099,"id":407},{"name":"Bad Schandau","lon":"14.1534018","lat":"50.918091","population":3761,"id":408},{"name":"Norderstedt","lon":"9.9891914","lat":"53.7089898","population":80420,"id":409},{"name":"Amperhof","lon":"11.8297065","lat":"48.4447367","population":15,"id":410},{"name":"Almersbach","lon":"7.6288485","lat":"50.674805","population":410,"id":411},{"name":"Gieleroth","lon":"7.6805251","lat":"50.6670908","population":648,"id":412},{"name":"Berzhausen","lon":"7.5690165","lat":"50.6551276","population":195,"id":413},{"name":"Stürzelbach","lon":"7.6149238","lat":"50.6514673","population":247,"id":414},{"name":"Kettenhausen","lon":"7.62814","lat":"50.7082369","population":271,"id":415},{"name":"Busenhausen","lon":"7.6333318","lat":"50.7161144","population":339,"id":416},{"name":"Bachenberg","lon":"7.6456857","lat":"50.714561","population":105,"id":417},{"name":"Birkenbeul","lon":"7.6222523","lat":"50.7390239","population":446,"id":418},{"name":"Hilgenroth","lon":"7.6515457","lat":"50.7370108","population":300,"id":419},{"name":"Heupelzen","lon":"7.619595","lat":"50.7241038","population":253,"id":420},{"name":"Giesenhausen","lon":"7.7187358","lat":"50.7017861","population":326,"id":421},{"name":"Stein-Wingert","lon":"7.7366649","lat":"50.7214788","population":225,"id":422},{"name":"Mörlen","lon":"7.8855701","lat":"50.6977241","population":544,"id":423},{"name":"Enspel","lon":"7.8846162","lat":"50.6169457","population":283,"id":424},{"name":"Hellerhof","lon":"6.9067285","lat":"51.1323633","population":6462,"id":425},{"name":"Prügel","lon":"11.2723847","lat":"50.1140594","population":149,"id":426},{"name":"Altenkunstadt","lon":"11.2433755","lat":"50.1284414","population":5609,"id":427},{"name":"Hohenacker","lon":"9.3160689","lat":"48.8657721","population":5000,"id":428},{"name":"Mittelbach","lon":"12.8000119","lat":"50.7996456","population":2188,"id":429},{"name":"Bad Hönningen","lon":"7.3065922","lat":"50.5157382","population":5659,"id":430},{"name":"Unkel","lon":"7.2157397","lat":"50.5996127","population":5075,"id":431},{"name":"Wassenberg","lon":"6.1561074","lat":"51.1007618","population":17182,"id":432},{"name":"Jülich","lon":"6.3611015","lat":"50.9220931","population":33948,"id":433},{"name":"Altlußheim","lon":"8.4981809","lat":"49.3004929","population":5338,"id":434},{"name":"Neulußheim","lon":"8.5220709","lat":"49.2936758","population":6570,"id":435},{"name":"Hegnach","lon":"9.297277","lat":"48.8563831","population":5000,"id":436},{"name":"Seeshaupt","lon":"11.3013554","lat":"47.8228233","population":2883,"id":437},{"name":"Syke","lon":"8.8198737","lat":"52.9131332","population":23666,"id":438},{"name":"Steckelsdorf","lon":"12.283556","lat":"52.6056994","population":737,"id":439},{"name":"Stuhr","lon":"8.7497818","lat":"53.027353","population":32556,"id":440},{"name":"Wörlitz","lon":"12.4199023","lat":"51.8414537","population":1430,"id":441},{"name":"Oranienbaum","lon":"12.4045328","lat":"51.7979734","population":3000,"id":442},{"name":"Schleesen","lon":"12.4880035","lat":"51.7850536","population":530,"id":443},{"name":"Naderkau","lon":"12.4647871","lat":"51.7862428","population":350,"id":444},{"name":"Kirchseeon","lon":"11.8878323","lat":"48.0711431","population":9239,"id":445},{"name":"Zwenkau","lon":"12.324152","lat":"51.2182735","population":8813,"id":446},{"name":"Kalchreuth","lon":"11.1326899","lat":"49.5582463","population":3050,"id":447},{"name":"Altdorf","lon":"8.9956248","lat":"48.6309208","population":4596,"id":448},{"name":"Kemnat","lon":"9.2316035","lat":"48.7181954","population":5123,"id":449},{"name":"Heumaden","lon":"9.2377466","lat":"48.7471657","population":9897,"id":450},{"name":"Ravensburg","lon":"9.612468","lat":"47.7811014","population":50776,"id":451},{"name":"Exter","lon":"8.7783989","lat":"52.1370194","population":3035,"id":452},{"name":"Riesigk","lon":"12.4689081","lat":"51.8235488","population":212,"id":453},{"name":"Gohrau","lon":"12.4882362","lat":"51.8145675","population":441,"id":454},{"name":"Rehsen","lon":"12.4929107","lat":"51.8270153","population":276,"id":455},{"name":"Berbisdorf","lon":"12.939163","lat":"50.7615393","population":1000,"id":456},{"name":"Baiersbronn","lon":"8.3720124","lat":"48.5069519","population":14453,"id":457},{"name":"Freudenstadt","lon":"8.4111727","lat":"48.4637727","population":23888,"id":458},{"name":"Penig","lon":"12.7075852","lat":"50.9331827","population":4903,"id":459},{"name":"Flöha","lon":"13.0772325","lat":"50.8503529","population":11128,"id":460},{"name":"Mögelin","lon":"12.3290891","lat":"52.5582248","population":1277,"id":461},{"name":"Berkenthin","lon":"10.6391585","lat":"53.7338071","population":2047,"id":462},{"name":"Groß Disnack","lon":"10.6913146","lat":"53.7428339","population":89,"id":463},{"name":"Pogeez","lon":"10.7295089","lat":"53.7508513","population":383,"id":464},{"name":"Groß Grönau","lon":"10.750665","lat":"53.8037317","population":3521,"id":465},{"name":"Todtmoos","lon":"8.0013624","lat":"47.7387447","population":2085,"id":466},{"name":"Koslar","lon":"6.32081","lat":"50.9255538","population":3050,"id":467},{"name":"Merzenhausen","lon":"6.2927805","lat":"50.9340753","population":403,"id":468},{"name":"Rurdorf","lon":"6.2763642","lat":"50.9648735","population":728,"id":469},{"name":"Welz","lon":"6.2600981","lat":"50.960552","population":634,"id":470},{"name":"Ederen","lon":"6.2479486","lat":"50.9465527","population":963,"id":471},{"name":"Hückelhoven","lon":"6.2247322","lat":"51.0552368","population":38709,"id":472},{"name":"Schönlind","lon":"11.9785739","lat":"50.462076","population":81,"id":473},{"name":"Tobertitz","lon":"11.9931575","lat":"50.4825666","population":289,"id":474},{"name":"Bacharach","lon":"7.7683997","lat":"50.0597943","population":2120,"id":475},{"name":"Fasendorf","lon":"12.0304812","lat":"50.5319304","population":83,"id":476},{"name":"Busendorf","lon":"10.8639253","lat":"50.0778569","population":110,"id":477},{"name":"Hilkersdorf","lon":"10.868346","lat":"50.066728","population":55,"id":478},{"name":"Medlitz","lon":"10.8831523","lat":"50.0481151","population":167,"id":479},{"name":"Chieming","lon":"12.5381465","lat":"47.8942626","population":4530,"id":480},{"name":"Seebruck","lon":"12.4783274","lat":"47.9340156","population":993,"id":481},{"name":"Esens","lon":"7.6118499","lat":"53.6468107","population":7221,"id":482},{"name":"Jever","lon":"7.9020696","lat":"53.5736426","population":13829,"id":483},{"name":"Beinstein","lon":"9.3458028","lat":"48.8226525","population":4000,"id":484},{"name":"Großostheim","lon":"9.0755904","lat":"49.9207462","population":8505,"id":485},{"name":"Hasel","lon":"7.8969746","lat":"47.6526083","population":1100,"id":486},{"name":"Mehderitzsch","lon":"13.049481","lat":"51.5035897","population":523,"id":487},{"name":"Mahitzschen","lon":"13.0776885","lat":"51.4890449","population":202,"id":488},{"name":"Klitzschen","lon":"12.9068087","lat":"51.5202418","population":521,"id":489},{"name":"Esch","lon":"8.3154729","lat":"50.2502132","population":1250,"id":490},{"name":"Altweilnau","lon":"8.4204721","lat":"50.3158495","population":751,"id":491},{"name":"Gerderath","lon":"6.2165366","lat":"51.0973352","population":4580,"id":492},{"name":"Meckesheim","lon":"8.8159217","lat":"49.3209158","population":5393,"id":493},{"name":"Weckhoven","lon":"6.6986699","lat":"51.1559576","population":8851,"id":494},{"name":"Kreis Düren","lon":"6.4822764","lat":"50.8032819","population":258385,"id":495},{"name":"Eibelstadt","lon":"10.0002727","lat":"49.7243433","population":2873,"id":496},{"name":"Winterhausen","lon":"10.015454","lat":"49.7068994","population":1523,"id":497},{"name":"Delkenheim","lon":"8.3616375","lat":"50.0475038","population":5109,"id":498},{"name":"Iffezheim","lon":"8.1421337","lat":"48.8209175","population":4909,"id":499},{"name":"Steinmauern","lon":"8.1988679","lat":"48.9003169","population":3111,"id":500},{"name":"Gerbrunn","lon":"9.9829734","lat":"49.7805844","population":6267,"id":501},{"name":"Waldbüttelbrunn","lon":"9.8403362","lat":"49.7867186","population":5065,"id":502},{"name":"Schluchsee","lon":"8.177035","lat":"47.8185928","population":2562,"id":503},{"name":"Bittenfeld","lon":"9.3139328","lat":"48.8888869","population":5000,"id":504},{"name":"Hof","lon":"11.9178807","lat":"50.3219015","population":44522,"id":505},{"name":"Bad Steben","lon":"11.6437323","lat":"50.3661332","population":3618,"id":506},{"name":"Nördlingen","lon":"10.4885873","lat":"48.8516578","population":20546,"id":507},{"name":"Lauchheim","lon":"10.2487381","lat":"48.8736283","population":4720,"id":508},{"name":"Mönchsdeggingen","lon":"10.5807045","lat":"48.7754142","population":1490,"id":509},{"name":"Teltow","lon":"13.2644532","lat":"52.4016457","population":19541,"id":510},{"name":"Neuenmarkt","lon":"11.5848641","lat":"50.0943381","population":3168,"id":511},{"name":"Grafengehaig","lon":"11.593975","lat":"50.2040826","population":1029,"id":512},{"name":"Bellheim","lon":"8.2844922","lat":"49.1964663","population":8469,"id":513},{"name":"Zeiskam","lon":"8.2506949","lat":"49.2343312","population":2275,"id":514},{"name":"Durbach","lon":"8.0182635","lat":"48.4946385","population":3884,"id":515},{"name":"Ebersweier","lon":"7.9852269","lat":"48.5079094","population":1230,"id":516},{"name":"Siegen","lon":"8.0227233","lat":"50.8749804","population":99403,"id":517},{"name":"Waldeck","lon":"9.0619393","lat":"51.2059609","population":1500,"id":518},{"name":"Straußfurt","lon":"10.989534","lat":"51.1624323","population":2047,"id":519},{"name":"Pöttmes","lon":"11.0892955","lat":"48.5820885","population":6330,"id":520},{"name":"Höchenschwand","lon":"8.1659943","lat":"47.7354379","population":2522,"id":521},{"name":"St. Blasien","lon":"8.131426","lat":"47.7602106","population":4080,"id":522},{"name":"Görwihl","lon":"8.0784862","lat":"47.6411618","population":4555,"id":523},{"name":"Traunreut","lon":"12.5952942","lat":"47.9627599","population":20935,"id":524},{"name":"Leukersdorf","lon":"12.8185135","lat":"50.7687047","population":1789,"id":525},{"name":"Seifersdorf","lon":"12.802147","lat":"50.7653911","population":700,"id":526},{"name":"Oberlungwitz","lon":"12.7343596","lat":"50.7894372","population":5851,"id":527},{"name":"Schönaich","lon":"9.0588276","lat":"48.6565504","population":9803,"id":528},{"name":"Kührstedt","lon":"8.7997207","lat":"53.5782917","population":1130,"id":529},{"name":"Annaberg-Buchholz","lon":"13.0106108","lat":"50.5788781","population":21604,"id":530},{"name":"Wunstorf","lon":"9.4294425","lat":"52.4257979","population":40639,"id":531},{"name":"Arnstadt","lon":"10.9461479","lat":"50.8349097","population":27300,"id":532},{"name":"Grumbach","lon":"13.1037169","lat":"50.5440998","population":742,"id":533},{"name":"Jöhstadt","lon":"13.0900195","lat":"50.5142346","population":3381,"id":534},{"name":"Braunweiler","lon":"7.7457142","lat":"49.8668146","population":624,"id":535},{"name":"Uedemerbruch","lon":"6.3296535","lat":"51.6547254","population":568,"id":536},{"name":"Lichterfelde","lon":"13.7488118","lat":"52.8663457","population":2000,"id":537},{"name":"Unterhausen","lon":"9.2563273","lat":"48.431259","population":9145,"id":538},{"name":"Gomadingen","lon":"9.3908141","lat":"48.3992436","population":2195,"id":539},{"name":"Zell im Wiesental","lon":"7.8476208","lat":"47.7054471","population":6067,"id":540},{"name":"Waldenbuch","lon":"9.1312415","lat":"48.6374291","population":8726,"id":541},{"name":"Neuenhaus","lon":"9.2092452","lat":"48.6247134","population":2300,"id":542},{"name":"Bebenhausen","lon":"9.0591401","lat":"48.5610315","population":335,"id":543},{"name":"Rodewald","lon":"9.4830162","lat":"52.6627327","population":2743,"id":544},{"name":"Lüdinghausen","lon":"7.444639","lat":"51.7717757","population":24263,"id":545},{"name":"Rümmingen","lon":"7.6429253","lat":"47.6419637","population":1592,"id":546},{"name":"Lippramsdorf","lon":"7.0952933","lat":"51.7152342","population":3576,"id":547},{"name":"Dörzbach","lon":"9.7049266","lat":"49.3842215","population":2469,"id":548},{"name":"Berlichingen","lon":"9.4869475","lat":"49.3269972","population":657,"id":549},{"name":"Klein-Rohrheim","lon":"8.4901045","lat":"49.734226","population":500,"id":550},{"name":"Limbach","lon":"7.2744267","lat":"49.3146463","population":3902,"id":551},{"name":"Großbeeren","lon":"13.307754","lat":"52.3540888","population":8291,"id":552},{"name":"Diedersdorf","lon":"13.3558425","lat":"52.340139","population":789,"id":553},{"name":"Beltersrot","lon":"9.6788454","lat":"49.1767563","population":200,"id":554},{"name":"Schönefeld","lon":"13.5048276","lat":"52.388552","population":17017,"id":555},{"name":"Osdorf","lon":"9.8602253","lat":"53.5738475","population":25773,"id":556},{"name":"Lurup","lon":"9.874564","lat":"53.5929519","population":35070,"id":557},{"name":"Waßmannsdorf","lon":"13.4747346","lat":"52.3712612","population":784,"id":558},{"name":"Winsen (Aller)","lon":"9.9101449","lat":"52.6796244","population":12554,"id":559},{"name":"Bennemühlen","lon":"9.716027","lat":"52.5757991","population":320,"id":560},{"name":"Mellendorf","lon":"9.7299326","lat":"52.5470675","population":6362,"id":561},{"name":"Kaltenweide","lon":"9.7292529","lat":"52.4748183","population":6300,"id":562},{"name":"Norden","lon":"7.2067435","lat":"53.5942039","population":24887,"id":563},{"name":"Mahlsdorf","lon":"13.6131624","lat":"52.5086995","population":27105,"id":564},{"name":"Rangsdorf","lon":"13.418888","lat":"52.2914292","population":10609,"id":565},{"name":"Sehnde","lon":"9.9647193","lat":"52.3144002","population":23181,"id":566},{"name":"Klein Kienitz","lon":"13.4834202","lat":"52.3078134","population":153,"id":567},{"name":"Tannenbusch","lon":"7.0523933","lat":"50.7469656","population":16425,"id":568},{"name":"Reusten","lon":"8.9201017","lat":"48.5430769","population":973,"id":569},{"name":"Neubrandenburg","lon":"13.2602781","lat":"53.5574458","population":63437,"id":570},{"name":"Muggendorf","lon":"11.262593","lat":"49.8035845","population":645,"id":571},{"name":"Lam","lon":"13.0514572","lat":"49.1964146","population":3500,"id":572},{"name":"Bad Kötzting","lon":"12.8529347","lat":"49.1758229","population":4000,"id":573},{"name":"Marienhafe","lon":"7.2727209","lat":"53.5230727","population":1920,"id":574},{"name":"Steinhude","lon":"9.3589259","lat":"52.4566199","population":4895,"id":575},{"name":"Wingershausen","lon":"9.1315952","lat":"50.4670453","population":426,"id":576},{"name":"Rudingshain","lon":"9.1746119","lat":"50.5240549","population":412,"id":577},{"name":"Ulrichstein","lon":"9.1929639","lat":"50.5759667","population":3257,"id":578},{"name":"Leingarten","lon":"9.1240565","lat":"49.1434266","population":10429,"id":579},{"name":"Gaildorf","lon":"9.7698525","lat":"49.0002603","population":12592,"id":580},{"name":"Bad Rappenau","lon":"9.101268","lat":"49.2393031","population":20193,"id":581},{"name":"Schwaderloch","lon":"8.1435346","lat":"47.5853969","population":662,"id":582},{"name":"Zell","lon":"11.1847072","lat":"49.1406548","population":500,"id":583},{"name":"Althüttendorf","lon":"13.8069312","lat":"52.9620208","population":768,"id":584},{"name":"Laubend","lon":"10.9408896","lat":"49.9588242","population":145,"id":585},{"name":"Leimershof","lon":"10.9650831","lat":"49.9857919","population":20,"id":586},{"name":"Todtnau","lon":"7.9452378","lat":"47.8303378","population":5077,"id":587},{"name":"Neuss","lon":"6.6916476","lat":"51.1981778","population":159122,"id":588},{"name":"Thiendorf","lon":"13.7419701","lat":"51.2932144","population":2313,"id":589},{"name":"Sacka","lon":"13.7918766","lat":"51.2845595","population":547,"id":590},{"name":"Dobra","lon":"13.7722941","lat":"51.2594989","population":326,"id":591},{"name":"Wäschenbeuren","lon":"9.6882634","lat":"48.7585462","population":3933,"id":592},{"name":"Bopfingen","lon":"10.3523096","lat":"48.8577633","population":11800,"id":593},{"name":"Kirchardt","lon":"8.9915645","lat":"49.2060256","population":5536,"id":594},{"name":"Wilsdruff","lon":"13.5362765","lat":"51.0524125","population":13708,"id":595},{"name":"Grumbach","lon":"13.5445044","lat":"51.0314791","population":1680,"id":596},{"name":"Ottendorf-Okrilla","lon":"13.8361238","lat":"51.182698","population":10273,"id":597},{"name":"Molbergen","lon":"7.9219863","lat":"52.8586593","population":9143,"id":598},{"name":"Dorfhain","lon":"13.5628002","lat":"50.9349219","population":1100,"id":599},{"name":"Dunum","lon":"7.6449981","lat":"53.5974697","population":1153,"id":600},{"name":"Werneuchen","lon":"13.7340939","lat":"52.6334769","population":7900,"id":601},{"name":"Altglietzen","lon":"14.0914827","lat":"52.8340315","population":473,"id":602},{"name":"Hohenwutzen","lon":"14.1202165","lat":"52.8444731","population":773,"id":603},{"name":"Hohenfinow","lon":"13.9240229","lat":"52.8115296","population":512,"id":604},{"name":"Hüffenhardt","lon":"9.0827453","lat":"49.2908862","population":2068,"id":605},{"name":"Neckarbischofsheim","lon":"8.9617359","lat":"49.293192","population":4010,"id":606},{"name":"Hasselbach","lon":"8.9874611","lat":"49.2593874","population":309,"id":607},{"name":"Ehrstädt","lon":"8.9820122","lat":"49.2444449","population":640,"id":608},{"name":"Augustusburg","lon":"13.1009791","lat":"50.8144193","population":4826,"id":609},{"name":"Rhüden","lon":"10.1256899","lat":"51.9416184","population":2721,"id":610},{"name":"Monheim am Rhein","lon":"6.8832264","lat":"51.0908881","population":40098,"id":611},{"name":"Sperenberg","lon":"13.3650454","lat":"52.1415496","population":1600,"id":612},{"name":"Holzgerlingen","lon":"9.0115732","lat":"48.6392119","population":11689,"id":613},{"name":"Völkersbach","lon":"8.3962452","lat":"48.8700689","population":1893,"id":614},{"name":"Siethen","lon":"13.2123678","lat":"52.2842337","population":791,"id":615},{"name":"Nossen","lon":"13.2980726","lat":"51.0565934","population":6336,"id":616},{"name":"Großvoigtsberg","lon":"13.2884224","lat":"50.9909991","population":683,"id":617},{"name":"Großschirma","lon":"13.2784375","lat":"50.9664763","population":5721,"id":618},{"name":"Großhartmannsdorf","lon":"13.3207207","lat":"50.7987248","population":1681,"id":619},{"name":"Mittelsaida","lon":"13.3058162","lat":"50.7651314","population":591,"id":620},{"name":"Mildenau","lon":"13.0697621","lat":"50.5906737","population":3853,"id":621},{"name":"Thermalbad Wiesenbad","lon":"13.0465688","lat":"50.6194141","population":3876,"id":622},{"name":"Pobershau","lon":"13.2175775","lat":"50.6384347","population":2075,"id":623},{"name":"Zöblitz","lon":"13.2313076","lat":"50.658016","population":2918,"id":624},{"name":"Tiste","lon":"9.5318556","lat":"53.2868662","population":841,"id":625},{"name":"Schnait","lon":"9.4043656","lat":"48.7906497","population":3194,"id":626},{"name":"Tostedt","lon":"9.7124175","lat":"53.28265","population":13323,"id":627},{"name":"Börgerende","lon":"11.9051401","lat":"54.1445484","population":1698,"id":628},{"name":"Bad Doberan","lon":"11.9026057","lat":"54.105858","population":11785,"id":629},{"name":"Kuppenheim","lon":"8.2545743","lat":"48.8272323","population":7608,"id":630},{"name":"Dellbrück","lon":"7.0741062","lat":"50.9759208","population":21403,"id":631},{"name":"Bergisch Gladbach","lon":"7.1277379","lat":"50.9929303","population":109425,"id":632},{"name":"Schattin","lon":"10.792096","lat":"53.8031849","population":103,"id":633},{"name":"Duvennest","lon":"10.7938676","lat":"53.8094778","population":68,"id":634},{"name":"Herrnburg","lon":"10.7593987","lat":"53.8386319","population":3186,"id":635},{"name":"Pirna","lon":"13.9386643","lat":"50.9616923","population":37645,"id":636},{"name":"Langelsheim","lon":"10.3296997","lat":"51.9356917","population":13366,"id":637},{"name":"Osterode am Harz","lon":"10.2508204","lat":"51.72784","population":22317,"id":638},{"name":"Herzberg am Harz","lon":"10.3428415","lat":"51.6565219","population":13140,"id":639},{"name":"Hann. Münden","lon":"9.6550096","lat":"51.4161908","population":23728,"id":640},{"name":"Bockenem","lon":"10.1331159","lat":"52.0111484","population":11349,"id":641},{"name":"Vetzberg","lon":"8.6139982","lat":"50.6198686","population":844,"id":642},{"name":"Krofdorf-Gleiberg","lon":"8.6364636","lat":"50.6216047","population":5000,"id":643},{"name":"Bad Waldsee","lon":"9.7542772","lat":"47.9209556","population":19596,"id":644},{"name":"Großerkmannsdorf","lon":"13.9288505","lat":"51.0846975","population":1648,"id":645},{"name":"Wesseling","lon":"6.9810852","lat":"50.8247166","population":35859,"id":646},{"name":"Hersel","lon":"7.0464119","lat":"50.7725088","population":4700,"id":647},{"name":"Untermarchtal","lon":"9.6112511","lat":"48.2411597","population":941,"id":648},{"name":"Untergruppenbach","lon":"9.275092","lat":"49.089717","population":7549,"id":649},{"name":"Euskirchen","lon":"6.7871681","lat":"50.66129","population":58435,"id":650},{"name":"Oegenbostel","lon":"9.6916189","lat":"52.5831301","population":386,"id":651},{"name":"Graurheindorf","lon":"7.0860824","lat":"50.7587611","population":3426,"id":652},{"name":"Lessenich","lon":"7.0422623","lat":"50.7232796","population":4109,"id":653},{"name":"Poppelsdorf","lon":"7.0888433","lat":"50.7217199","population":6290,"id":654},{"name":"Kupferzell","lon":"9.6902519","lat":"49.2276928","population":5766,"id":655},{"name":"Cham","lon":"12.6663832","lat":"49.2178194","population":17013,"id":656},{"name":"Rottach-Egern","lon":"11.7707109","lat":"47.6909599","population":5307,"id":657},{"name":"Viechtach","lon":"12.8862723","lat":"49.0800743","population":8002,"id":658},{"name":"Jungholzhausen","lon":"9.7993904","lat":"49.2216013","population":302,"id":659},{"name":"Delitzsch","lon":"12.342857","lat":"51.5255661","population":25005,"id":660},{"name":"Rackwitz","lon":"12.3714685","lat":"51.4390092","population":2282,"id":661},{"name":"Podelwitz","lon":"12.3821145","lat":"51.4275914","population":466,"id":662},{"name":"Zschortau","lon":"12.359866","lat":"51.478865","population":1489,"id":663},{"name":"Holzweißig","lon":"12.3074564","lat":"51.6001604","population":2500,"id":664},{"name":"Mühlbeck","lon":"12.3803369","lat":"51.6391291","population":972,"id":665},{"name":"Untermünkheim","lon":"9.7338441","lat":"49.1528219","population":3029,"id":666},{"name":"Zerpenschleuse","lon":"13.527697","lat":"52.8515828","population":886,"id":667},{"name":"Künzelsau","lon":"9.6901512","lat":"49.2803765","population":14802,"id":668},{"name":"Liebenwalde","lon":"13.3943575","lat":"52.8726482","population":4670,"id":669},{"name":"Falkenthal","lon":"13.2974823","lat":"52.901337","population":625,"id":670},{"name":"Nordhalben","lon":"11.5119245","lat":"50.3741193","population":2040,"id":671},{"name":"Tschirn","lon":"11.4500695","lat":"50.3964966","population":598,"id":672},{"name":"Teuschnitz","lon":"11.380875","lat":"50.397541","population":2228,"id":673},{"name":"Alt Ruppin","lon":"12.8499055","lat":"52.9461467","population":2800,"id":674},{"name":"Neuruppin","lon":"12.8092919","lat":"52.9243859","population":31037,"id":675},{"name":"Dabergotz","lon":"12.7261924","lat":"52.9029636","population":601,"id":676},{"name":"Temnitztal","lon":"12.640015","lat":"52.8774457","population":1435,"id":677},{"name":"Friesack","lon":"12.5782641","lat":"52.7395263","population":2904,"id":678},{"name":"Rockstedt","lon":"9.16137","lat":"53.3316667","population":400,"id":679},{"name":"Kyritz","lon":"12.3966896","lat":"52.9430648","population":9152,"id":680},{"name":"Bassum","lon":"8.728382","lat":"52.8495881","population":15529,"id":681},{"name":"Demerthin","lon":"12.2918168","lat":"52.9728278","population":357,"id":682},{"name":"Gumtow","lon":"12.2523998","lat":"52.9792807","population":4184,"id":683},{"name":"Bad Waldliesborn","lon":"8.3371761","lat":"51.7100908","population":5284,"id":684},{"name":"Lipperode","lon":"8.3743583","lat":"51.6943165","population":4167,"id":685},{"name":"Lippstadt","lon":"8.347194","lat":"51.6747074","population":66312,"id":686},{"name":"Alsfeld","lon":"9.268355","lat":"50.7523545","population":15993,"id":687},{"name":"Düpow","lon":"11.8969223","lat":"53.0628902","population":355,"id":688},{"name":"Perleberg","lon":"11.8627933","lat":"53.0762716","population":12046,"id":689},{"name":"Kremmin","lon":"11.598172","lat":"53.2494905","population":241,"id":690},{"name":"Walldorf","lon":"8.5817868","lat":"50.0044913","population":18000,"id":691},{"name":"Kelsterbach","lon":"8.5296632","lat":"50.065151","population":14656,"id":692},{"name":"Horneburg","lon":"7.2945946","lat":"51.6308374","population":1700,"id":693},{"name":"Braunschweig","lon":"10.5236066","lat":"52.2646577","population":248023,"id":694},{"name":"Uedem","lon":"6.2735726","lat":"51.6686375","population":8503,"id":695},{"name":"Ober-Erlenbach","lon":"8.6799368","lat":"50.2269346","population":5500,"id":696},{"name":"Kapern","lon":"11.5399442","lat":"53.0177158","population":130,"id":697},{"name":"Lütkenwisch","lon":"11.5900807","lat":"53.0377384","population":21,"id":698},{"name":"Diekholzen","lon":"9.915534","lat":"52.0944417","population":6966,"id":699},{"name":"Sibbesse","lon":"9.9045818","lat":"52.0541312","population":2800,"id":700},{"name":"Küps","lon":"11.2778205","lat":"50.1917871","population":7700,"id":701},{"name":"Kleinopitz","lon":"13.5917025","lat":"51.0044794","population":530,"id":702},{"name":"Groß Krams","lon":"11.266353","lat":"53.3332555","population":170,"id":703},{"name":"Redefin","lon":"11.2008151","lat":"53.3485068","population":535,"id":704},{"name":"Selm","lon":"7.468614","lat":"51.7005549","population":25553,"id":705},{"name":"Beilngries","lon":"11.4733811","lat":"49.035279","population":5302,"id":706},{"name":"Kinding","lon":"11.3837704","lat":"49.0008124","population":662,"id":707},{"name":"Geestgottberg","lon":"11.7302771","lat":"52.9551786","population":398,"id":708},{"name":"Meseberg","lon":"11.8071545","lat":"52.8066153","population":321,"id":709},{"name":"Rengerslage","lon":"11.8931183","lat":"52.8178199","population":74,"id":710},{"name":"Tharandt","lon":"13.5794907","lat":"50.9853391","population":5700,"id":711},{"name":"Heubült","lon":"8.1588586","lat":"53.3327681","population":99,"id":712},{"name":"Hahn","lon":"8.1612968","lat":"53.2928359","population":730,"id":713},{"name":"Rastede","lon":"8.201904","lat":"53.2467081","population":22531,"id":714},{"name":"Rostrup","lon":"7.9828842","lat":"53.195747","population":3051,"id":715},{"name":"Westerstede","lon":"7.9273367","lat":"53.2575197","population":21919,"id":716},{"name":"Fronhausen","lon":"8.6945193","lat":"50.7027934","population":4023,"id":717},{"name":"Recklinghausen","lon":"7.1978546","lat":"51.6143815","population":115320,"id":718},{"name":"Vierraden","lon":"14.29611","lat":"53.0978481","population":1000,"id":719},{"name":"Neurochlitz","lon":"14.4061059","lat":"53.2806222","population":152,"id":720},{"name":"Mescherin","lon":"14.4335207","lat":"53.2509782","population":822,"id":721},{"name":"Tantow","lon":"14.350151","lat":"53.2722602","population":825,"id":722},{"name":"Radekow","lon":"14.3531723","lat":"53.3008675","population":145,"id":723},{"name":"Rosow","lon":"14.3871141","lat":"53.3043102","population":153,"id":724},{"name":"Casekow","lon":"14.2085984","lat":"53.2110052","population":1928,"id":725},{"name":"Sodenmatt","lon":"8.724024","lat":"53.04791","population":6911,"id":726},{"name":"Mittelshuchting","lon":"8.7265255","lat":"53.0569337","population":10788,"id":727},{"name":"Kirchhuchting","lon":"8.741664","lat":"53.04604","population":8117,"id":728},{"name":"Grolland","lon":"8.761166","lat":"53.0610901","population":3332,"id":729},{"name":"Huchting","lon":"8.7422973","lat":"53.0519445","population":29166,"id":730},{"name":"Regensburger Straße","lon":"8.801489","lat":"53.097935","population":6989,"id":731},{"name":"Findorff-Bürgerweide","lon":"8.8089464","lat":"53.0894016","population":6483,"id":732},{"name":"Weidedamm","lon":"8.8165361","lat":"53.097009","population":12304,"id":733},{"name":"In den Hufen","lon":"8.8142605","lat":"53.106808","population":336,"id":734},{"name":"Findorff","lon":"8.808282","lat":"53.094685","population":25872,"id":735},{"name":"Bautzen - Budy┼íin","lon":"14.4275735","lat":"51.1813907","population":39607,"id":736},{"name":"Bischofswerda","lon":"14.1795516","lat":"51.1277815","population":13413,"id":737},{"name":"Elze","lon":"9.7352511","lat":"52.5816736","population":3026,"id":738},{"name":"Selikum","lon":"6.7028","lat":"51.1738498","population":1124,"id":739},{"name":"Butzbach","lon":"8.6711184","lat":"50.4340422","population":26500,"id":740},{"name":"Kinzenbach","lon":"8.6116306","lat":"50.5893541","population":2200,"id":741},{"name":"Unterlüß","lon":"10.297171","lat":"52.834578","population":4265,"id":742},{"name":"Uhlenhorst","lon":"10.0127361","lat":"53.5715093","population":16501,"id":743},{"name":"Horn","lon":"8.8706928","lat":"53.0975237","population":4924,"id":744},{"name":"Lehe","lon":"8.864205","lat":"53.105484","population":9158,"id":745},{"name":"Lehesterdeich","lon":"8.8869493","lat":"53.1096434","population":12059,"id":746},{"name":"Riensberg","lon":"8.8636417","lat":"53.0907611","population":6203,"id":747},{"name":"Kloster Schöntal","lon":"9.5049091","lat":"49.328619","population":211,"id":748},{"name":"Hermannsburg","lon":"10.086811","lat":"52.831696","population":8514,"id":749},{"name":"Altwarmbüchen","lon":"9.8483711","lat":"52.4347962","population":9500,"id":750},{"name":"Großburgwedel","lon":"9.856156","lat":"52.4914501","population":9658,"id":751},{"name":"Hohenaltheim","lon":"10.5346471","lat":"48.7825955","population":626,"id":752},{"name":"Möttingen","lon":"10.5937967","lat":"48.8082179","population":2527,"id":753},{"name":"Fellingshausen","lon":"8.5979525","lat":"50.6425297","population":1611,"id":754},{"name":"Niederwürschnitz","lon":"12.7556602","lat":"50.71989","population":3078,"id":755},{"name":"Uffeln","lon":"8.8698601","lat":"52.1753067","population":3910,"id":756},{"name":"Vlotho","lon":"8.8619172","lat":"52.1664861","population":18970,"id":757},{"name":"Hohenfelde","lon":"10.0211917","lat":"53.561882","population":9149,"id":758},{"name":"Holtensen","lon":"9.4872673","lat":"52.3864217","population":250,"id":759},{"name":"Dörentrup","lon":"9.0033681","lat":"52.0408142","population":8786,"id":760},{"name":"Reine","lon":"9.1745518","lat":"52.0520242","population":100,"id":761},{"name":"Bad Pyrmont","lon":"9.2434635","lat":"51.9850503","population":18909,"id":762},{"name":"Brensbach","lon":"8.8806968","lat":"49.7744431","population":5389,"id":763},{"name":"Haarhausen","lon":"10.89896","lat":"50.861742","population":532,"id":764},{"name":"Albaxen","lon":"9.4011378","lat":"51.8211963","population":1591,"id":765},{"name":"Höxter","lon":"9.3816877","lat":"51.7747369","population":13000,"id":766},{"name":"Craula","lon":"10.4919289","lat":"51.0639058","population":337,"id":767},{"name":"Dimbach","lon":"9.3845288","lat":"49.1693759","population":880,"id":768},{"name":"Schwabbach","lon":"9.4049229","lat":"49.1835266","population":1360,"id":769},{"name":"Coppenbrügge","lon":"9.5493252","lat":"52.1202595","population":8016,"id":770},{"name":"Bodenwerder","lon":"9.5139063","lat":"51.9752481","population":6337,"id":771},{"name":"Eiche","lon":"12.9944324","lat":"52.4068131","population":4480,"id":772},{"name":"Golmbach","lon":"9.5439239","lat":"51.8999276","population":1060,"id":773},{"name":"Stadtoldendorf","lon":"9.6252205","lat":"51.8842114","population":6360,"id":774},{"name":"Heinade","lon":"9.6332131","lat":"51.8403355","population":1085,"id":775},{"name":"Uslar","lon":"9.6347785","lat":"51.658901","population":14376,"id":776},{"name":"Neupotz","lon":"8.3204809","lat":"49.1166189","population":1794,"id":777},{"name":"Kösching","lon":"11.4971139","lat":"48.8104641","population":8280,"id":778},{"name":"Lippoldsberg","lon":"9.5599042","lat":"51.6239317","population":1668,"id":779},{"name":"Boffzen","lon":"9.3965915","lat":"51.7510044","population":3171,"id":780},{"name":"Löhne","lon":"8.7141587","lat":"52.1990346","population":39512,"id":781},{"name":"Löhne-Ort","lon":"8.6898314","lat":"52.1864807","population":7079,"id":782},{"name":"Obernbeck","lon":"8.7007241","lat":"52.2037284","population":6523,"id":783},{"name":"Mauren","lon":"10.6700315","lat":"48.7564069","population":493,"id":784},{"name":"Velten","lon":"13.1775867","lat":"52.6882194","population":11475,"id":785},{"name":"Langenfeld","lon":"6.9459377","lat":"51.1008952","population":56982,"id":786},{"name":"Trittau","lon":"10.4043947","lat":"53.6117462","population":7639,"id":787},{"name":"Lütjensee","lon":"10.3653139","lat":"53.6493291","population":3206,"id":788},{"name":"Ronnenberg","lon":"9.6532075","lat":"52.3166623","population":7000,"id":789},{"name":"Baisingen","lon":"8.7767897","lat":"48.5047413","population":1225,"id":790},{"name":"Weiler","lon":"8.9206301","lat":"48.4481473","population":1081,"id":791},{"name":"Datteln","lon":"7.3385906","lat":"51.651468","population":34332,"id":792},{"name":"Oer-Erkenschwick","lon":"7.2605914","lat":"51.6398512","population":30550,"id":793},{"name":"Capellenhagen","lon":"9.6501695","lat":"51.9766268","population":158,"id":794},{"name":"Eschershausen","lon":"9.6376217","lat":"51.9270198","population":3457,"id":795},{"name":"Delligsen","lon":"9.7985793","lat":"51.9429111","population":9101,"id":796},{"name":"Woltershausen","lon":"9.9546711","lat":"51.9726221","population":841,"id":797},{"name":"Sachsenhagen","lon":"9.2663019","lat":"52.3966396","population":2091,"id":798},{"name":"Hohnhorst","lon":"9.3731633","lat":"52.3699848","population":2074,"id":799},{"name":"Lollar","lon":"8.7064931","lat":"50.6488974","population":10169,"id":800},{"name":"Bardowick","lon":"10.3906505","lat":"53.2931879","population":6800,"id":801},{"name":"Bojendorf","lon":"11.1764726","lat":"50.0436915","population":157,"id":802},{"name":"Griesheim","lon":"11.0427669","lat":"50.7531605","population":261,"id":803},{"name":"Hellendorf","lon":"9.7256198","lat":"52.5639013","population":1435,"id":804},{"name":"Ludwigsburg","lon":"9.1895147","lat":"48.8953937","population":91116,"id":805},{"name":"Osterholz-Scharmbeck","lon":"8.7948239","lat":"53.2281763","population":29942,"id":806},{"name":"Münstertal","lon":"7.7829804","lat":"47.8555277","population":5211,"id":807},{"name":"Weinsberg","lon":"9.2865471","lat":"49.1504172","population":11812,"id":808},{"name":"Hennersdorf","lon":"13.6172344","lat":"50.8286715","population":453,"id":809},{"name":"Sadisdorf","lon":"13.6345474","lat":"50.8408836","population":397,"id":810},{"name":"Istein","lon":"7.5396199","lat":"47.6584833","population":1280,"id":811},{"name":"Ruttershausen","lon":"8.7109125","lat":"50.6611919","population":1300,"id":812},{"name":"Einbeck","lon":"9.8678465","lat":"51.8185067","population":31591,"id":813},{"name":"Opperhausen","lon":"9.9967028","lat":"51.8279422","population":832,"id":814},{"name":"Rittierode","lon":"9.9489632","lat":"51.8163982","population":240,"id":815},{"name":"Ahlshausen","lon":"9.9721635","lat":"51.7925248","population":571,"id":816},{"name":"Aerzen","lon":"9.2638158","lat":"52.0496072","population":12003,"id":817},{"name":"Mühlacker","lon":"8.8492931","lat":"48.9487272","population":24931,"id":818},{"name":"Barntrup","lon":"9.1127565","lat":"51.9909552","population":9646,"id":819},{"name":"Bad Krozingen","lon":"7.7033313","lat":"47.9118288","population":17448,"id":820},{"name":"Treppendorf","lon":"10.7329282","lat":"49.8018139","population":169,"id":821},{"name":"Schlüsselfeld","lon":"10.6186266","lat":"49.7569182","population":5871,"id":822},{"name":"Zschopau","lon":"13.0695613","lat":"50.7469606","population":11939,"id":823},{"name":"Ansbach","lon":"10.5722288","lat":"49.3028611","population":41159,"id":824},{"name":"Heroldsberg","lon":"11.1526565","lat":"49.5331766","population":7417,"id":825},{"name":"Salzkotten","lon":"8.6068636","lat":"51.6717596","population":24544,"id":826},{"name":"Geseke","lon":"8.512578","lat":"51.6395322","population":20573,"id":827},{"name":"Erwitte","lon":"8.3396662","lat":"51.61431","population":15663,"id":828},{"name":"Ratzeburg","lon":"10.774288","lat":"53.7011061","population":13785,"id":829},{"name":"Handorf","lon":"7.6998213","lat":"51.9882099","population":8042,"id":830},{"name":"Remshalden","lon":"9.4369168","lat":"48.8114785","population":13531,"id":831},{"name":"Herbertingen","lon":"9.4346544","lat":"48.0600681","population":4893,"id":832},{"name":"Kaldorf","lon":"11.4319098","lat":"49.0485135","population":43,"id":833},{"name":"Weinstadt","lon":"9.3774813","lat":"48.8085568","population":26177,"id":834},{"name":"Strümpfelbach","lon":"9.3647571","lat":"48.7837386","population":2426,"id":835},{"name":"Ritterhude","lon":"8.7521428","lat":"53.1886097","population":13997,"id":836},{"name":"Worpswede","lon":"8.9283482","lat":"53.2230018","population":9687,"id":837},{"name":"Wennigsen (Deister)","lon":"9.5671846","lat":"52.2762744","population":13933,"id":838},{"name":"Bühl","lon":"8.9984298","lat":"48.4825364","population":2200,"id":839},{"name":"Weilheim","lon":"9.0332521","lat":"48.4915715","population":1500,"id":840},{"name":"Kilchberg","lon":"9.0169038","lat":"48.4896208","population":1261,"id":841},{"name":"Kirchwehren","lon":"9.5669997","lat":"52.3659108","population":560,"id":842},{"name":"Döteberg","lon":"9.5918514","lat":"52.3720206","population":340,"id":843},{"name":"Lintorf","lon":"6.8312298","lat":"51.333258","population":15150,"id":844},{"name":"Barsinghausen","lon":"9.4623741","lat":"52.30223","population":33231,"id":845},{"name":"Nürtingen","lon":"9.3365463","lat":"48.6265854","population":41154,"id":846},{"name":"Neckarhausen","lon":"9.3093028","lat":"48.6181556","population":4044,"id":847},{"name":"Neckartailfingen","lon":"9.2641176","lat":"48.611973","population":3877,"id":848},{"name":"Neckartenzlingen","lon":"9.2330064","lat":"48.5905969","population":6361,"id":849},{"name":"Jettenburg","lon":"9.1291037","lat":"48.5020728","population":1100,"id":850},{"name":"Messenkamp","lon":"9.3800378","lat":"52.2601103","population":838,"id":851},{"name":"Lauenau","lon":"9.3688859","lat":"52.2740961","population":3923,"id":852},{"name":"Pinneberg","lon":"9.7967897","lat":"53.6615177","population":43603,"id":853},{"name":"Wolfsburg","lon":"10.7861682","lat":"52.4205588","population":122457,"id":854},{"name":"Bad Bodendorf","lon":"7.2199877","lat":"50.5579464","population":3860,"id":855},{"name":"Dahlhausen","lon":"7.1471441","lat":"51.4313774","population":13004,"id":856},{"name":"Apelern","lon":"9.3343159","lat":"52.289378","population":2625,"id":857},{"name":"Mardorf","lon":"9.2874365","lat":"52.4877336","population":1985,"id":858},{"name":"Neustadt am Rübenberge","lon":"9.4635826","lat":"52.5055135","population":20000,"id":859},{"name":"Kleinkühnau","lon":"12.1860616","lat":"51.8387953","population":1888,"id":860},{"name":"Großkühnau","lon":"12.1780094","lat":"51.851505","population":900,"id":861},{"name":"Görden","lon":"12.5178335","lat":"52.4254287","population":9425,"id":862},{"name":"Forchtenberg","lon":"9.5608005","lat":"49.2889174","population":5004,"id":863},{"name":"Wasserburg am Inn","lon":"12.220026","lat":"48.0615171","population":12439,"id":864},{"name":"Wannweil","lon":"9.1540193","lat":"48.5144104","population":5320,"id":865},{"name":"Schwaan","lon":"12.1071145","lat":"53.9400696","population":5483,"id":866},{"name":"Güstrow","lon":"12.1759661","lat":"53.7936523","population":28540,"id":867},{"name":"Müden (Örtze)","lon":"10.1151662","lat":"52.8768425","population":2200,"id":868},{"name":"Ebstorf","lon":"10.4178494","lat":"53.0273634","population":5361,"id":869},{"name":"Bad Bevensen","lon":"10.5744812","lat":"53.0809408","population":8852,"id":870},{"name":"Alt Krenzlin","lon":"11.3093581","lat":"53.3191132","population":886,"id":871},{"name":"Spornitz","lon":"11.7219265","lat":"53.4092436","population":1535,"id":872},{"name":"Parchim","lon":"11.8475244","lat":"53.4258455","population":17129,"id":873},{"name":"Ganzlin","lon":"12.2524362","lat":"53.3838522","population":1453,"id":874},{"name":"Zislow","lon":"12.3157987","lat":"53.4313899","population":190,"id":875},{"name":"Waren (Müritz)","lon":"12.6850606","lat":"53.5156249","population":21637,"id":876},{"name":"Torgelow am See","lon":"12.7733902","lat":"53.5581172","population":462,"id":877},{"name":"Dönschten","lon":"13.7085401","lat":"50.8247317","population":185,"id":878},{"name":"Genthin","lon":"12.1561742","lat":"52.4063738","population":13761,"id":879},{"name":"Biberach an der Riß","lon":"9.7899938","lat":"48.0984413","population":31419,"id":880},{"name":"Maselheim","lon":"9.8846843","lat":"48.1355236","population":4575,"id":881},{"name":"Laupheim","lon":"9.8771587","lat":"48.2305342","population":20213,"id":882},{"name":"Ochsenhausen","lon":"9.9512104","lat":"48.0711222","population":8985,"id":883},{"name":"Dedensen","lon":"9.5150527","lat":"52.4013676","population":2300,"id":884},{"name":"Hohenstücken","lon":"12.5214864","lat":"52.4347917","population":8127,"id":885},{"name":"Ribnitz-Damgarten","lon":"12.4319733","lat":"54.2433326","population":17053,"id":886},{"name":"Wustrow","lon":"12.3947297","lat":"54.3485481","population":1338,"id":887},{"name":"Ahrenshoop","lon":"12.419192","lat":"54.3789509","population":837,"id":888},{"name":"Geldern","lon":"6.3228189","lat":"51.5169736","population":33064,"id":889},{"name":"Goch","lon":"6.1593045","lat":"51.6755765","population":33063,"id":890},{"name":"Rusbend","lon":"9.0575925","lat":"52.3117924","population":663,"id":891},{"name":"Seukendorf","lon":"10.8775656","lat":"49.4888745","population":3180,"id":892},{"name":"Langenzenn","lon":"10.7937902","lat":"49.4950727","population":10443,"id":893},{"name":"Friedberg (Hessen)","lon":"8.7539306","lat":"50.3352682","population":27758,"id":894},{"name":"Pruchten","lon":"12.675384","lat":"54.3773772","population":698,"id":895},{"name":"Hirschsprung","lon":"13.7468846","lat":"50.7827033","population":117,"id":896},{"name":"Maineck","lon":"11.3001792","lat":"50.1170937","population":266,"id":897},{"name":"Treunitz","lon":"11.1985512","lat":"49.9663846","population":130,"id":898},{"name":"Leinburg","lon":"11.3085114","lat":"49.4508507","population":6431,"id":899},{"name":"Großenheerse","lon":"8.9881672","lat":"52.4468606","population":72,"id":900},{"name":"Rodenberg","lon":"9.3584245","lat":"52.3129195","population":6077,"id":901},{"name":"Pohle","lon":"9.3435193","lat":"52.2661684","population":937,"id":902},{"name":"Ohorn","lon":"14.044108","lat":"51.1747091","population":2633,"id":903},{"name":"Pulsnitz","lon":"14.0139733","lat":"51.1825771","population":7610,"id":904},{"name":"Oberboihingen","lon":"9.3668947","lat":"48.6475985","population":5399,"id":905},{"name":"Unterensingen","lon":"9.3554739","lat":"48.6566983","population":4491,"id":906},{"name":"Zizishausen","lon":"9.3478133","lat":"48.6423531","population":3306,"id":907},{"name":"Schoningen","lon":"9.659815","lat":"51.6317572","population":889,"id":908},{"name":"Neu Schloen","lon":"12.7881128","lat":"53.536357","population":455,"id":909},{"name":"Plau am See","lon":"12.2631689","lat":"53.4600943","population":6022,"id":910},{"name":"Suderburg","lon":"10.4401186","lat":"52.8992544","population":4694,"id":911},{"name":"Urad","lon":"14.7122297","lat":"52.2452293","population":430,"id":912},{"name":"Niederseidewitz","lon":"13.9033417","lat":"50.9214318","population":69,"id":913},{"name":"Baltmannsweiler","lon":"9.4459231","lat":"48.7451811","population":5548,"id":914},{"name":"Nowy Lubusz","lon":"14.5501916","lat":"52.4043293","population":160,"id":915},{"name":"Kunice","lon":"14.651667","lat":"52.2655592","population":80,"id":916},{"name":"Notzingen","lon":"9.4576949","lat":"48.6702793","population":3482,"id":917},{"name":"Dettingen unter Teck","lon":"9.4537835","lat":"48.6161538","population":5603,"id":918},{"name":"Nabern","lon":"9.4839258","lat":"48.6150601","population":1881,"id":919},{"name":"K┼éopot","lon":"14.7018221","lat":"52.1307995","population":160,"id":920},{"name":"Klipphausen","lon":"13.5293546","lat":"51.0749571","population":6171,"id":921},{"name":"Bevern","lon":"9.4940292","lat":"51.8578826","population":4390,"id":922},{"name":"Holzminden","lon":"9.4466591","lat":"51.828835","population":17500,"id":923},{"name":"Lauenförde","lon":"9.3845274","lat":"51.663699","population":2503,"id":924},{"name":"Hugstetten","lon":"7.781347","lat":"48.0533687","population":3000,"id":925},{"name":"Borgentreich","lon":"9.2362761","lat":"51.5702348","population":9796,"id":926},{"name":"Schwalenberg","lon":"9.1968062","lat":"51.8771446","population":1500,"id":927},{"name":"Schieder","lon":"9.1531355","lat":"51.9138173","population":4000,"id":928},{"name":"Zgorzelec","lon":"15.0079028","lat":"51.1477005","population":32332,"id":929},{"name":"Eschenbruch","lon":"9.1708514","lat":"51.9612238","population":422,"id":930},{"name":"Sobolice","lon":"14.9751048","lat":"51.3884229","population":100,"id":931},{"name":"Pie┼äsk","lon":"15.0449871","lat":"51.2457834","population":5938,"id":932},{"name":"Hößlinswart","lon":"9.4622117","lat":"48.8293756","population":700,"id":933},{"name":"Birkenweißbuch","lon":"9.4877425","lat":"48.851092","population":370,"id":934},{"name":"Waldgirmes","lon":"8.549731","lat":"50.5872058","population":3324,"id":935},{"name":"Dorlar","lon":"8.5633477","lat":"50.5768506","population":2000,"id":936},{"name":"Kröv","lon":"7.0862624","lat":"49.9783033","population":2245,"id":937},{"name":"Reichenbach an der Fils","lon":"9.4621689","lat":"48.7098725","population":8060,"id":938},{"name":"Seefeld","lon":"11.213275","lat":"48.0346668","population":7102,"id":939},{"name":"Andechs","lon":"11.1828225","lat":"47.9746379","population":3686,"id":940},{"name":"Unterammergau","lon":"11.0286344","lat":"47.6155933","population":1468,"id":941},{"name":"Oberammergau","lon":"11.0673611","lat":"47.5966949","population":5379,"id":942},{"name":"Ettal","lon":"11.0939733","lat":"47.5692548","population":808,"id":943},{"name":"Grainau","lon":"11.0259498","lat":"47.4753212","population":3466,"id":944},{"name":"Rechtmehring","lon":"12.1598525","lat":"48.1238948","population":1755,"id":945},{"name":"Engelbostel","lon":"9.6598794","lat":"52.4479994","population":3100,"id":946},{"name":"Bünde","lon":"8.5828944","lat":"52.2004727","population":45189,"id":947},{"name":"Trier","lon":"6.6441878","lat":"49.7596208","population":107233,"id":948},{"name":"Oberhummel","lon":"11.8744034","lat":"48.4277924","population":496,"id":949},{"name":"Haigerloch","lon":"8.7985138","lat":"48.3675198","population":10935,"id":950},{"name":"Rangendingen","lon":"8.8877867","lat":"48.3789351","population":5220,"id":951},{"name":"Reutlingen","lon":"9.2114144","lat":"48.4919508","population":112099,"id":952},{"name":"Kleinwallstadt","lon":"9.1688433","lat":"49.8738515","population":5832,"id":953},{"name":"Großwallstadt","lon":"9.1588408","lat":"49.8778629","population":4063,"id":954},{"name":"Zapfendorf","lon":"10.9314384","lat":"50.0171801","population":5067,"id":955},{"name":"Rotberg","lon":"13.5171138","lat":"52.3427852","population":425,"id":956},{"name":"Brusendorf","lon":"13.509532","lat":"52.3093902","population":400,"id":957},{"name":"Grabenstetten","lon":"9.4612632","lat":"48.5244177","population":1571,"id":958},{"name":"Gesees","lon":"11.5368583","lat":"49.9002604","population":1260,"id":959},{"name":"Kirchlengern","lon":"8.6440034","lat":"52.1983452","population":16719,"id":960},{"name":"Windham","lon":"11.863005","lat":"48.4260506","population":25,"id":961},{"name":"Reimlingen","lon":"10.5167978","lat":"48.8196556","population":1358,"id":962},{"name":"Miltach","lon":"12.7682729","lat":"49.1582592","population":2367,"id":963},{"name":"Oberkochen","lon":"10.1106691","lat":"48.7855073","population":8290,"id":964},{"name":"Ebnat","lon":"10.1849056","lat":"48.800167","population":3300,"id":965},{"name":"Söllichau","lon":"12.6423756","lat":"51.635642","population":950,"id":966},{"name":"Bad Schmiedeberg","lon":"12.7409236","lat":"51.6883775","population":8655,"id":967},{"name":"Bad Oeynhausen","lon":"8.7981244","lat":"52.2014399","population":48294,"id":968},{"name":"Lommatzsch","lon":"13.3111561","lat":"51.1952586","population":6083,"id":969},{"name":"Bühlerzell","lon":"9.9186695","lat":"49.0028957","population":2049,"id":970},{"name":"Bühlertann","lon":"9.9075811","lat":"49.0412271","population":3138,"id":971},{"name":"Mackenrode","lon":"10.5446043","lat":"51.5515698","population":546,"id":972},{"name":"Chorin","lon":"13.8724943","lat":"52.9036603","population":2275,"id":973},{"name":"Lohnde","lon":"9.5623952","lat":"52.4016963","population":2774,"id":974},{"name":"Nahe","lon":"10.13793","lat":"53.7942267","population":2396,"id":975},{"name":"Schwinkendorf","lon":"12.6847227","lat":"53.6425652","population":383,"id":976},{"name":"Zettemin","lon":"12.8307769","lat":"53.6478386","population":394,"id":977},{"name":"Kittendorf","lon":"12.9017689","lat":"53.6239568","population":358,"id":978},{"name":"Groß Varchow","lon":"12.9358543","lat":"53.5763851","population":100,"id":979},{"name":"Groß Plasten","lon":"12.8506807","lat":"53.5465074","population":820,"id":980},{"name":"Oranienburg","lon":"13.2457591","lat":"52.7529379","population":42028,"id":981},{"name":"Zella-Mehlis","lon":"10.6727728","lat":"50.6574735","population":12532,"id":982},{"name":"Emersacker","lon":"10.67331","lat":"48.4890443","population":1418,"id":983},{"name":"Stadt Hasselfelde","lon":"10.8552525","lat":"51.6910307","population":2904,"id":984},{"name":"Steinthaleben","lon":"11.0254307","lat":"51.3957906","population":522,"id":985},{"name":"Kelbra","lon":"11.0401125","lat":"51.4362095","population":1500,"id":986},{"name":"Muggensturm","lon":"8.2798439","lat":"48.8701198","population":6227,"id":987},{"name":"Paschwitz","lon":"12.7218446","lat":"51.46539","population":539,"id":988},{"name":"Hohendodeleben","lon":"11.5050964","lat":"52.1041858","population":1831,"id":989},{"name":"Niederndodeleben","lon":"11.5015127","lat":"52.1353475","population":4231,"id":990},{"name":"Wanzleben","lon":"11.4431958","lat":"52.0592898","population":5387,"id":991},{"name":"Domersleben","lon":"11.4360611","lat":"52.0920427","population":1179,"id":992},{"name":"Klein Rodensleben","lon":"11.4382079","lat":"52.1167319","population":588,"id":993},{"name":"Groß Rodensleben","lon":"11.3855231","lat":"52.121379","population":1121,"id":994},{"name":"Dreileben","lon":"11.3315584","lat":"52.1275923","population":603,"id":995},{"name":"Schermcke","lon":"11.2899206","lat":"52.0558371","population":663,"id":996},{"name":"Klein Wanzleben","lon":"11.3637159","lat":"52.0699692","population":2511,"id":997},{"name":"Rheine","lon":"7.4373615","lat":"52.2797707","population":73484,"id":998},{"name":"Leezdorf","lon":"7.2904385","lat":"53.5467123","population":1984,"id":999},{"name":"Eschlkam","lon":"12.9161876","lat":"49.2993168","population":3557,"id":1000},{"name":"Massenbachhausen","lon":"9.046756","lat":"49.1775314","population":3680,"id":1001},{"name":"Arnschwang","lon":"12.8153746","lat":"49.2725367","population":2046,"id":1002},{"name":"Bad Kissingen","lon":"10.0746833","lat":"50.1985698","population":21650,"id":1003},{"name":"Vestenbergsgreuth","lon":"10.6518956","lat":"49.6877554","population":1640,"id":1004},{"name":"Uehlfeld","lon":"10.7204206","lat":"49.6706753","population":2979,"id":1005},{"name":"Lützen","lon":"12.1459521","lat":"51.2585623","population":8720,"id":1006},{"name":"Starsiedel","lon":"12.1401462","lat":"51.2180772","population":710,"id":1007},{"name":"Muschwitz","lon":"12.1190548","lat":"51.1925698","population":1175,"id":1008},{"name":"Granschütz","lon":"12.0537508","lat":"51.1834255","population":1143,"id":1009},{"name":"Zorbau","lon":"12.0224652","lat":"51.1916823","population":832,"id":1010},{"name":"Nempitz","lon":"12.1478216","lat":"51.291215","population":311,"id":1011},{"name":"Teuchern","lon":"12.0223935","lat":"51.1185488","population":3557,"id":1012},{"name":"Pähl","lon":"11.1751031","lat":"47.9056634","population":2429,"id":1013},{"name":"Welzheim","lon":"9.6347406","lat":"48.8749241","population":11257,"id":1014},{"name":"Halbemond","lon":"7.297287","lat":"53.5658058","population":1006,"id":1015},{"name":"Lobenrot","lon":"9.3555873","lat":"48.7714023","population":229,"id":1016},{"name":"Ilsfeld","lon":"9.2458327","lat":"49.0553992","population":8589,"id":1017},{"name":"Schanbach","lon":"9.3794273","lat":"48.7586035","population":2809,"id":1018},{"name":"Aichschieß","lon":"9.3928765","lat":"48.74818","population":1564,"id":1019},{"name":"Aichelberg","lon":"9.3913928","lat":"48.7797782","population":2256,"id":1020},{"name":"Hitzhusen","lon":"9.8545836","lat":"53.9229295","population":1271,"id":1021},{"name":"Föhrden-Barl","lon":"9.787368","lat":"53.9280896","population":291,"id":1022},{"name":"Rechtsupweg","lon":"7.3265511","lat":"53.5284695","population":2081,"id":1023},{"name":"Wrist","lon":"9.7476414","lat":"53.9311697","population":2319,"id":1024},{"name":"Mühlenbarbek","lon":"9.6710296","lat":"53.956609","population":346,"id":1025},{"name":"Itzehoe","lon":"9.5172441","lat":"53.919448","population":31796,"id":1026},{"name":"Untererlbach","lon":"10.8538095","lat":"49.1927147","population":64,"id":1027},{"name":"Kartung","lon":"8.1724003","lat":"48.7760646","population":2032,"id":1028},{"name":"Falkensee","lon":"13.0855621","lat":"52.5678244","population":40900,"id":1029},{"name":"Wernfels","lon":"10.8798185","lat":"49.1992517","population":390,"id":1030},{"name":"Altenbrak","lon":"10.931718","lat":"51.7277922","population":386,"id":1031},{"name":"Treseburg","lon":"10.9715678","lat":"51.716265","population":99,"id":1032},{"name":"Thale","lon":"11.037722","lat":"51.7527606","population":12903,"id":1033},{"name":"Friedrichsbrunn","lon":"11.0423859","lat":"51.6927874","population":1057,"id":1034},{"name":"Bad Suderode","lon":"11.1216196","lat":"51.728836","population":1849,"id":1035},{"name":"Godshorn","lon":"9.7071024","lat":"52.4381754","population":6400,"id":1036},{"name":"Eckel","lon":"9.9157814","lat":"53.3671948","population":1823,"id":1037},{"name":"Wittelshofen","lon":"10.4829365","lat":"49.0619697","population":1285,"id":1038},{"name":"Mönchsroth","lon":"10.3598581","lat":"49.0201943","population":1620,"id":1039},{"name":"Markt Emskirchen","lon":"10.7176179","lat":"49.5504379","population":6075,"id":1040},{"name":"Dachsbach","lon":"10.7062862","lat":"49.6396029","population":1765,"id":1041},{"name":"Niederwerrn","lon":"10.1821081","lat":"50.0610864","population":7977,"id":1042},{"name":"Rositz","lon":"12.3677012","lat":"51.0170897","population":3265,"id":1043},{"name":"Zeitz","lon":"12.1349991","lat":"51.0491637","population":29557,"id":1044},{"name":"Meineweh","lon":"11.9883345","lat":"51.0760857","population":640,"id":1045},{"name":"Naumburg (Saale)","lon":"11.8099186","lat":"51.1525648","population":32804,"id":1046},{"name":"Freyburg (Unstrut)","lon":"11.7696956","lat":"51.2126192","population":4571,"id":1047},{"name":"Barnstädt","lon":"11.636912","lat":"51.34467","population":1190,"id":1048},{"name":"Querfurt","lon":"11.5974443","lat":"51.3785275","population":10454,"id":1049},{"name":"Kronberg","lon":"8.5085855","lat":"50.1796561","population":17711,"id":1050},{"name":"Schönberg","lon":"8.5188619","lat":"50.1832709","population":3762,"id":1051},{"name":"Oberhöchstadt","lon":"8.5410529","lat":"50.1827449","population":6176,"id":1052},{"name":"Bommersheim","lon":"8.5964221","lat":"50.1977027","population":5000,"id":1053},{"name":"Velen","lon":"6.9839073","lat":"51.8957136","population":13200,"id":1054},{"name":"Stierstadt","lon":"8.5781339","lat":"50.185593","population":5326,"id":1055},{"name":"Weißkirchen","lon":"8.5967342","lat":"50.1821328","population":4733,"id":1056},{"name":"Bosau","lon":"10.4300895","lat":"54.1041743","population":3564,"id":1057},{"name":"Oesterholz-Haustenbeck","lon":"8.8386186","lat":"51.8368098","population":1863,"id":1058},{"name":"Großaitingen","lon":"10.7814824","lat":"48.2281905","population":4804,"id":1059},{"name":"Oberottmarshausen","lon":"10.8570182","lat":"48.2382121","population":1646,"id":1060},{"name":"Kleinaitingen","lon":"10.8410767","lat":"48.2196501","population":1367,"id":1061},{"name":"Handeloh","lon":"9.8365154","lat":"53.2458828","population":2355,"id":1062},{"name":"Emsdetten","lon":"7.5301756","lat":"52.174687","population":35447,"id":1063},{"name":"Ramsdorf","lon":"6.9215629","lat":"51.8902663","population":5935,"id":1064},{"name":"Hochmoor","lon":"7.0354822","lat":"51.897999","population":2076,"id":1065},{"name":"Schwabegg","lon":"10.6891239","lat":"48.1839819","population":818,"id":1066},{"name":"Bobingen","lon":"10.8337852","lat":"48.2687941","population":16574,"id":1067},{"name":"Stiege","lon":"10.884212","lat":"51.664783","population":1094,"id":1068},{"name":"Oberfarnstädt","lon":"11.5698898","lat":"51.4280439","population":1239,"id":1069},{"name":"Harzgerode","lon":"11.1465703","lat":"51.6381169","population":4439,"id":1070},{"name":"Klostermansfeld","lon":"11.4933395","lat":"51.5841525","population":2772,"id":1071},{"name":"Stadt Güntersberge","lon":"10.9765865","lat":"51.6431436","population":939,"id":1072},{"name":"Rochlitz","lon":"12.7990531","lat":"51.0456789","population":6221,"id":1073},{"name":"Weseke","lon":"6.8561529","lat":"51.9086519","population":5270,"id":1074},{"name":"Bad Abbach","lon":"12.0440495","lat":"48.9381757","population":7585,"id":1075},{"name":"Burg auf Fehmarn","lon":"11.1969428","lat":"54.4394204","population":6000,"id":1076},{"name":"Bannesdorf","lon":"11.2180774","lat":"54.4680446","population":720,"id":1077},{"name":"Steinbach","lon":"9.4752512","lat":"48.9575143","population":1683,"id":1078},{"name":"Waldrems","lon":"9.4339323","lat":"48.9163903","population":1889,"id":1079},{"name":"Heiningen","lon":"9.4432306","lat":"48.9204778","population":1108,"id":1080},{"name":"Stadt Stolberg (Harz)","lon":"10.9548323","lat":"51.5732926","population":1286,"id":1081},{"name":"Rottleberode","lon":"10.9453591","lat":"51.5170931","population":1578,"id":1082},{"name":"Roßla","lon":"11.0746095","lat":"51.4627742","population":2380,"id":1083},{"name":"Hayn (Harz)","lon":"11.0763667","lat":"51.5693472","population":614,"id":1084},{"name":"Ballenstedt","lon":"11.2290268","lat":"51.722527","population":7978,"id":1085},{"name":"Bad Malente-Gremsmühlen","lon":"10.5593123","lat":"54.1707841","population":10877,"id":1086},{"name":"Niederndorf","lon":"10.9139606","lat":"49.5640826","population":2814,"id":1087},{"name":"Groß Meinsdorf","lon":"10.6112419","lat":"54.1077958","population":433,"id":1088},{"name":"Wolkenstein","lon":"13.0664608","lat":"50.6557148","population":4309,"id":1089},{"name":"Marklohe","lon":"9.1568113","lat":"52.6690306","population":4465,"id":1090},{"name":"Oppenweiler","lon":"9.4609301","lat":"48.9844859","population":4136,"id":1091},{"name":"Strümpfelbach","lon":"9.4348379","lat":"48.9716063","population":925,"id":1092},{"name":"Dillingen an der Donau","lon":"10.4951425","lat":"48.5812547","population":19149,"id":1093},{"name":"Südlohn","lon":"6.8657729","lat":"51.9446284","population":9542,"id":1094},{"name":"Hennigsdorf","lon":"13.2057511","lat":"52.6375777","population":25800,"id":1095},{"name":"Allmersbach im Tal","lon":"9.4679753","lat":"48.9073065","population":5076,"id":1096},{"name":"Bischofsgrün","lon":"11.7980056","lat":"50.0521196","population":1293,"id":1097},{"name":"Bad Bentheim","lon":"7.1605921","lat":"52.3024786","population":15311,"id":1098},{"name":"Braunlage","lon":"10.6100516","lat":"51.7264388","population":6082,"id":1099},{"name":"Visselhövede","lon":"9.5777771","lat":"52.9849747","population":10707,"id":1100},{"name":"Sangerhausen","lon":"11.2981851","lat":"51.4729797","population":29240,"id":1101},{"name":"Ober-Eschbach","lon":"8.6502192","lat":"50.2162771","population":6500,"id":1102},{"name":"Mörslingen","lon":"10.51476","lat":"48.6230684","population":850,"id":1103},{"name":"Donaualtheim","lon":"10.4875365","lat":"48.5945268","population":934,"id":1104},{"name":"Empelde","lon":"9.6625415","lat":"52.3405165","population":12000,"id":1105},{"name":"Wasseralfingen","lon":"10.1047551","lat":"48.8653366","population":11850,"id":1106},{"name":"Selmsdorf","lon":"10.8575937","lat":"53.8827264","population":2062,"id":1107},{"name":"Grebin","lon":"10.4938861","lat":"54.1980053","population":1021,"id":1108},{"name":"Bad Neustadt an der Saale","lon":"10.2164873","lat":"50.322637","population":16179,"id":1109},{"name":"Neustadt","lon":"12.5634513","lat":"52.4078968","population":21203,"id":1110},{"name":"Altstadt","lon":"12.5536336","lat":"52.4140445","population":13735,"id":1111},{"name":"Berg (Pfalz)","lon":"8.2018479","lat":"48.9840852","population":2169,"id":1112},{"name":"Magdeburg","lon":"11.6399609","lat":"52.1315889","population":231021,"id":1113},{"name":"Ahaus","lon":"7.004876","lat":"52.0761541","population":38262,"id":1114},{"name":"Würmersheim","lon":"8.2546132","lat":"48.9390513","population":2548,"id":1115},{"name":"Stadtlohn","lon":"6.9173072","lat":"51.9928346","population":20005,"id":1116},{"name":"Gescher","lon":"7.0038803","lat":"51.956874","population":16887,"id":1117},{"name":"Cadolzburg","lon":"10.8563868","lat":"49.4591406","population":10160,"id":1118},{"name":"Oberstenfeld","lon":"9.3192878","lat":"49.0242983","population":8056,"id":1119},{"name":"Großbottwar","lon":"9.2930138","lat":"49.001316","population":8381,"id":1120},{"name":"Dornum","lon":"7.4279225","lat":"53.6469567","population":4525,"id":1121},{"name":"Würselen","lon":"6.1341108","lat":"50.8178682","population":37654,"id":1122},{"name":"Gelsdorf","lon":"7.0361044","lat":"50.5862227","population":1539,"id":1123},{"name":"Bad Saulgau","lon":"9.5010309","lat":"48.0158071","population":17011,"id":1124},{"name":"Scheer","lon":"9.2965371","lat":"48.0731597","population":2636,"id":1125},{"name":"Bad Belzig","lon":"12.5865873","lat":"52.1405622","population":11407,"id":1126},{"name":"Lembeck","lon":"7.0019291","lat":"51.7583075","population":5124,"id":1127},{"name":"Bahnhof Reken","lon":"7.0452311","lat":"51.8060404","population":2325,"id":1128},{"name":"Klein Reken","lon":"7.0381773","lat":"51.7867359","population":2613,"id":1129},{"name":"Uichteritz","lon":"11.9243476","lat":"51.2070406","population":1443,"id":1130},{"name":"Leißling","lon":"11.9110757","lat":"51.1837461","population":1625,"id":1131},{"name":"Kohlscheid","lon":"6.0886835","lat":"50.8346962","population":20500,"id":1132},{"name":"Röthardt","lon":"10.1254726","lat":"48.8567983","population":230,"id":1133},{"name":"Neutraubling","lon":"12.1937046","lat":"48.9879681","population":13255,"id":1134},{"name":"Wusterwitz","lon":"12.3841027","lat":"52.3702891","population":3133,"id":1135},{"name":"Rogäsen","lon":"12.3543171","lat":"52.3214594","population":264,"id":1136},{"name":"Viesen","lon":"12.3893166","lat":"52.3234165","population":182,"id":1137},{"name":"Ziemetshausen","lon":"10.5327353","lat":"48.2935251","population":3036,"id":1138},{"name":"Sunstedt","lon":"10.8351545","lat":"52.2384237","population":354,"id":1139},{"name":"Lelm","lon":"10.8558697","lat":"52.2199507","population":800,"id":1140},{"name":"Räbke","lon":"10.8785719","lat":"52.1958087","population":683,"id":1141},{"name":"Rieseberg","lon":"10.78854","lat":"52.2959494","population":390,"id":1142},{"name":"Hondelage","lon":"10.5991997","lat":"52.315269","population":3900,"id":1143},{"name":"Burgwerben","lon":"11.9827482","lat":"51.2219302","population":1066,"id":1144},{"name":"Ödernhardt","lon":"9.4659153","lat":"48.8538933","population":280,"id":1145},{"name":"Vorderweißbuch","lon":"9.5017488","lat":"48.8546686","population":220,"id":1146},{"name":"Oberndorf","lon":"12.0188993","lat":"48.9471508","population":651,"id":1147},{"name":"Kleinprüfening","lon":"12.0275709","lat":"49.0074008","population":193,"id":1148},{"name":"Eilsbrunn","lon":"11.9784517","lat":"49.0048847","population":918,"id":1149},{"name":"Hohenstein-Ernstthal","lon":"12.7072907","lat":"50.8021139","population":14950,"id":1150},{"name":"Scheinfeld","lon":"10.462567","lat":"49.6653406","population":4762,"id":1151},{"name":"Delbrück","lon":"8.5594953","lat":"51.7649178","population":30828,"id":1152},{"name":"Binnen","lon":"9.1347207","lat":"52.6185181","population":1034,"id":1153},{"name":"Hohenbrunn","lon":"11.7021625","lat":"48.048083","population":8569,"id":1154},{"name":"Langerringen","lon":"10.7571408","lat":"48.1479335","population":3780,"id":1155},{"name":"Lamerdingen","lon":"10.7411259","lat":"48.092884","population":1840,"id":1156},{"name":"Kaufering","lon":"10.8605317","lat":"48.0871324","population":9880,"id":1157},{"name":"Obermeitingen","lon":"10.8067743","lat":"48.1473368","population":1560,"id":1158},{"name":"Buchloe","lon":"10.7241879","lat":"48.0361382","population":11983,"id":1159},